stop_id,stop_name,stop_lat,stop_lon,location_type,parent_station,wheelchair_boarding
"20002","Circular Quay, Alfred St, Stand B","-33.861592","151.211932","","","0"
"20652","Greenwich Point Wharf, Lower Serpentine Rd","-33.841786","151.181019","","","0"
"21051","HolmePort Marina, McCarrs Creek Rd","-33.645897","151.281477","","","0"
"21373","Bayview Park, Burwood Rd","-33.857865","151.120692","","","0"
"21721","Boronia Dr opp Lomandra Ct","-33.9629","150.9781","","","0"
"21723","Pleasure Point Rd at Heathcote Rd","-33.9731","150.9834","","","0"
"21751","Abbotsbury Dr after Wallgrove Rd","-33.857596","150.84861","","","0"
"21781","Trinity Primary School, Bakers Lane","-33.832446","150.789405","","","0"
"21782","Cecil Rd after Elizabeth Dr","-33.874269","150.838376","","","0"
"21783","Mamre Rd at Elizabeth Dr","-33.880433","150.807616","","","0"
"21784","Capitol Hill Dr at Bowood Rd","-33.858112","150.810798","","","0"
"21791","Unity Grammar College, School Grounds, Fifth Ave","-33.946336","150.802488","","","0"
"200013","Sussex St at Erskine St","-33.866523","151.203516","","","0"
"200015","Maritime Museum","-33.869704","151.198462","","","0"
"200017","Central Station, Railway Square, Stand J","-33.883129","151.203555","","","0"
"200018","Sussex St before Erskine St","-33.866123","151.203453","","","0"
"200019","Hickson Rd opp Roslyn Packer Theatre","-33.856907","151.204591","","","0"
"200021","Wynyard Station, Carrington St, Stand A","-33.865297","151.206375","","","0"
"200023","Wynyard Station, Carrington St, Stand B","-33.865836","151.206298","","","0"
"200024","Wynyard Station, Carrington St, Stand C","-33.866137","151.206275","","","0"
"200025","Wynyard Station, Carrington St, Stand D","-33.866449","151.206238","","","0"
"200029","Wynyard Station, York St, Stand H","-33.866871","151.20589","","","0"
"200031","Wynyard Station, York St, Stand J","-33.866443","151.205835","","","0"
"200033","Wynyard Station, York St, Stand K","-33.866192","151.205807","","","0"
"200034","Wynyard Station, York St, Stand L","-33.865957","151.205776","","","0"
"200035","Wynyard Station, York St, Stand M","-33.865522","151.205722","","","0"
"200038","King Street Wharf, Cuthbert St","-33.868057","151.202262","","","0"
"200039","Central Station, Eddy Ave, Stand A","-33.882506","151.207389","","","0"
"200041","QVB, York St, Stand A","-33.872404","151.206511","","","0"
"200042","QVB, York St, Stand B","-33.872272","151.2065","","","0"
"200043","QVB, York St, Stand C","-33.87197","151.206479","","","0"
"200044","QVB, York St, Stand D","-33.871298","151.206427","","","0"
"200045","St James Station, Elizabeth St","-33.87208","151.210167","","","0"
"200047","Elizabeth St at Hay St","-33.880871","151.208651","","","0"
"200048","Wynyard Station, York St, Stand P","-33.864755","151.205681","","","0"
"200049","Museum Station, Downing Centre, Stand E","-33.877307","151.209284","","","0"
"200051","Central Station, Eddy Ave, Stand B","-33.882298","151.207463","","","0"
"200053","Central Station, Eddy Ave, Stand C","-33.882131","151.207152","","","0"
"200054","Central Station, Eddy Ave, Stand D","-33.882048","151.206998","","","0"
"200055","Museum Station, Elizabeth St, Stand D","-33.874927","151.209583","","","0"
"200057","Sheraton on the Park, Elizabeth St","-33.872002","151.209948","","","0"
"200058","Museum Station, Castlereagh St, Stand F","-33.877271","151.208781","","","0"
"200059","Museum of Sydney, Phillip St","-33.864027","151.211701","","","0"
"200062","Central Station, Railway Square, Stand K","-33.88385","151.20354","","","0"
"200063","Central Station, Railway Square, Stand L","-33.883842","151.203092","","","0"
"200064","Central Station, Railway Square, Stand M","-33.883665","151.203342","","","0"
"200065","Circular Quay, Young St, Stand D","-33.862004","151.211151","","","0"
"200067","Circular Quay, Phillip St, Stand C","-33.862933","151.211812","","","0"
"200068","Phillip St opp Museum of Sydney","-33.863985","151.211847","","","0"
"200069","Castlereagh St before Bathurst St","-33.87409","151.209145","","","0"
"200071","Museum Station, Liverpool St, Stand A","-33.876756","151.210458","","","0"
"200073","Museum Station, Elizabeth St, Stand C","-33.875513","151.209739","","","0"
"200074","Museum Station, Downing Centre, Stand B","-33.878024","151.209431","","","0"
"200076","Pitt St opp Australia Square","-33.864595","151.208869","","","0"
"200077","Martin Place Station, Castlereagh St, Stand H","-33.867454","151.20994","","","0"
"200078","David Jones, Castlereagh St, Stand B","-33.871266","151.20948","","","0"
"200079","David Jones, Castlereagh St, Stand A","-33.871799","151.209417","","","0"
"200081","Martin Place Station, Elizabeth St, Stand F","-33.86755","151.210711","","","0"
"200083","Pitt St opp Barlow St","-33.881153","151.206594","","","0"
"200084","Pitt St at Campbell St","-33.879214","151.207182","","","0"
"200089","Martin Place Station, Macquarie St, Stand A","-33.868087","151.212159","","","0"
"200093","The Royal Botanic Gardens, Macquarie St","-33.86485","151.212741","","","0"
"200094","Martin Place Station, Macquarie St, Stand B","-33.866913","151.21246","","","0"
"200095","King Street Wharf, King St","-33.868873","151.202164","","","0"
"200096","Bridge St at Gresham St","-33.863625","151.209726","","","0"
"200097","Andrew (Boy) Charlton Pool, Mrs Macquaries Rd","-33.863612","151.221108","","","0"
"200098","Argyle St at Watson Rd","-33.8585","151.204017","","","0"
"200711","Harris St after Quarry St","-33.876833","151.198165","","","0"
"200712","Powerhouse Museum, Harris St","-33.879013","151.199421","","","0"
"200713","Harris St at Mary Ann St","-33.880648","151.200365","","","0"
"200715","Harris St before Broadway","-33.883232","151.20191","","","0"
"200717","Harris St at Mary Ann St","-33.88099","151.200346","","","0"
"200718","Harris St at Macarthur St","-33.879645","151.199574","","","0"
"200719","Harris St opp Powerhouse Museum","-33.878362","151.198823","","","0"
"200720","Harris St at Quarry St","-33.876618","151.197826","","","0"
"200721","Broadway Shopping Centre, Broadway","-33.88425","151.196023","","","0"
"200723","University of Technology Sydney, Broadway","-33.884115","151.201","","","0"
"200726","Harris St after Fig St","-33.875355","151.197286","","","0"
"200727","Ultimo Public School, Jones St","-33.877492","151.196052","","","0"
"200728","Thomas St after Wattle St","-33.883151","151.198884","","","0"
"200815","Broadway at Buckland St","-33.884486","151.197634","","","0"
"200816","City Rd after Cleveland St","-33.888246","151.192549","","","0"
"200817","City Rd before Butlin Av","-33.889165","151.190832","","","0"
"200818","King St opp Carillon Ave","-33.891608","151.188294","","","0"
"200819","Central Station, Railway Square, Stand N","-33.884062","151.203625","","","0"
"200822","Cleveland St at Beaumont St","-33.88837","151.196677","","","0"
"200823","Cleveland St at Beaumont St","-33.888219","151.196633","","","0"
"200824","Cleveland St at Balfour St","-33.888671","151.199823","","","0"
"200911","Pirrama Park, Pirrama Rd","-33.863953","151.193299","","","0"
"200912","Harris St at John St","-33.867855","151.192756","","","0"
"200913","Harris St opp Union Square","-33.869399","151.193685","","","0"
"200915","Miller St at Jones St","-33.870416","151.191898","","","0"
"200916","Harris St at Pyrmont Bridge Rd","-33.871078","151.19483","","","0"
"200918","Pirrama Rd before Darling Island Rd","-33.866077","151.194599","","","0"
"200919","Marquee Sydney, Pirrama Rd","-33.867004","151.195408","","","0"
"200920","Pirrama Rd after Jones Bay Rd","-33.865815","151.1942","","","0"
"200921","Pirrama Rd opp Pirrama Park","-33.863805","151.193043","","","0"
"200922","Pirrama Rd at Harris St","-33.86598","151.192014","","","0"
"200923","Harris St at John St","-33.867428","151.192695","","","0"
"200924","Union Square, Harris St","-33.869261","151.193749","","","0"
"200926","Harris St at Allen St","-33.873627","151.196064","","","0"
"200928","Harris St after Pyrmont Bridge Rd","-33.870869","151.194505","","","0"
"200929","Miller St opp Jones St","-33.870534","151.192004","","","0"
"200931","Pirrama Rd opp The Star","-33.867737","151.19606","","","0"
"200932","Miller St before Harris St","-33.869851","151.193359","","","0"
"200933","Harris St at Allen St","-33.873117","151.195971","","","0"
"200934","Harris St at Bowman St","-33.866297","151.191852","","","0"
"201011","Flinders St before Albion St","-33.884282","151.217627","","","0"
"201013","Flinders St at Hannam St","-33.883208","151.217576","","","0"
"201014","Flinders St before South Dowling St","-33.884444","151.217972","","","0"
"201015","Chalmers St opp Belvoir St","-33.888602","151.20621","","","0"
"201016","Central Station, Chalmers St, Stand G","-33.886261","151.206714","","","0"
"201017","Bourke St at Liverpool St","-33.877918","151.217276","","","0"
"201018","Bourke St before Burton St","-33.878317","151.217371","","","0"
"201019","Chalmers St opp Bedford St","-33.887403","151.206473","","","0"
"201021","Crown St at Miles St","-33.889517","151.213126","","","0"
"201022","Crown St at Arthur St","-33.887171","151.21357","","","0"
"201023","Crown St before Foveaux St","-33.88591","151.213799","","","0"
"201024","Campbell St at Riley St","-33.880658","151.213457","","","0"
"201025","Campbell St at Foster St","-33.880122","151.209642","","","0"
"201026","Hunt St at Campbell St","-33.879917","151.211472","","","0"
"201027","Campbell St before Riley St","-33.880456","151.213212","","","0"
"201028","Crown St at Suttor St","-33.873828","151.216312","","","0"
"201035","Albion St after Commonwealth St","-33.882765","151.21113","","","0"
"201036","Albion St at Riley St","-33.883291","151.213491","","","0"
"201037","Fitzroy St at Marshall St","-33.885735","151.216908","","","0"
"201038","Foveaux St at Crown St","-33.885213","151.2142","","","0"
"201039","Central Station, Foveaux St, Stand F","-33.8839","151.209257","","","0"
"201046","Cleveland St at Marlborough St","-33.890907","151.210621","","","0"
"201047","Cleveland St before Crown St","-33.891425","151.212377","","","0"
"201048","Cleveland St before Bourke St","-33.89165","151.214006","","","0"
"201050","Flinders St after Oxford St","-33.881481","151.217231","","","0"
"201051","Oxford St opp Palmer St","-33.880094","151.216076","","","0"
"201053","Oxford St at Riley St","-33.87877","151.214426","","","0"
"201055","Oxford St after College St","-33.877483","151.213254","","","0"
"201056","Oxford St at Brisbane St","-33.877569","151.212966","","","0"
"201058","Oxford St at Palmer St","-33.879575","151.215784","","","0"
"201059","Elizabeth St at Reservoir St","-33.881117","151.208862","","","0"
"201060","Oxford St after South Dowling St","-33.88148","151.218587","","","0"
"201061","Oxford St before Darlinghurst Rd","-33.880766","151.217555","","","0"
"201062","Oxford St before Darlinghurst Rd","-33.880828","151.217706","","","0"
"201063","St Vincent's Hospital, Burton St","-33.879456","151.221515","","","0"
"201064","Burton St at Victoria St","-33.879311","151.220696","","","0"
"201065","Burton St at Forbes St","-33.87899","151.218598","","","0"
"201068","Stanley St at Crown St","-33.875986","151.216206","","","0"
"201070","Yurong St before Stanley St","-33.875197","151.214305","","","0"
"201071","Stanley St at Crown St","-33.875798","151.215726","","","0"
"201074","Burton St at Forbes St","-33.878857","151.218715","","","0"
"201075","Burton St opp St Vincent's Hospital","-33.879281","151.221527","","","0"
"201076","Craigend St after Neild Av","-33.876959","151.228896","","","0"
"201077","Craigend St at Oswald Lane","-33.876677","151.225689","","","0"
"201078","Victoria St after Craigend St","-33.87631","151.221942","","","0"
"201079","Victoria St at Liverpool St","-33.87806","151.221554","","","0"
"201080","Central Station, Elizabeth St, Stand E","-33.884107","151.208319","","","0"
"201081","Elizabeth St at Devonshire St","-33.886217","151.208291","","","0"
"201082","Elizabeth St at Goodlet St","-33.889314","151.208065","","","0"
"201083","William St after Crown St","-33.874311","151.215646","","","0"
"201084","William St before College St","-33.874056","151.213983","","","0"
"201086","Darlinghurst Rd at Burton St","-33.87927","151.219738","","","0"
"201087","Darlinghurst Rd at Oxford St","-33.880956","151.218456","","","0"
"201088","Darlinghurst Rd before Tewkesbury Ave","-33.877649","151.22059","","","0"
"201089","Darlinghurst Rd before Craigend St","-33.875992","151.221536","","","0"
"201090","Williams St at Bourke St","-33.874766","151.218398","","","0"
"201092","Crown St at Rainford St","-33.88718","151.213744","","","0"
"201093","Crown St at Foveaux St","-33.885485","151.214078","","","0"
"201094","Crown St at Albion St","-33.883317","151.214486","","","0"
"201095","Crown St at Campbell St","-33.881114","151.214898","","","0"
"201096","Crown St opp Crown Street Public School","-33.88275","151.214412","","","0"
"201097","Crown St at Campbell St","-33.881153","151.214709","","","0"
"201098","Crown St opp Lansdowne St","-33.890207","151.213142","","","0"
"201099","Cleveland St near Pitt St","-33.889473","151.205109","","","0"
"201111","Kings Cross Station, Darlinghurst Rd, Stand A","-33.874103","151.223142","","","0"
"201112","Kings Cross Station, Darlinghurst Rd, Stand B","-33.874604","151.222767","","","0"
"201113","William St at Palmer St","-33.874307","151.216983","","","0"
"201114","William St before Dowling St","-33.874801","151.219875","","","0"
"201115","Kings Cross Station, Bayswater Rd, Stand D","-33.875018","151.223142","","","0"
"201117","Kings Cross Rd after Ward Av","-33.876095","151.225791","","","0"
"201118","Bayswater Rd after Waratah St","-33.876145","151.228468","","","0"
"201123","Greenknowe Ave after Macleay St","-33.871442","151.225762","","","0"
"201126","Kings Cross Station, Bayswater Rd, Stand C","-33.87495","151.223694","","","0"
"201127","Macleay St at Orwell St","-33.872315","151.224879","","","0"
"201128","Elizabeth Bay Rd at Ithaca Rd","-33.872055","151.228495","","","0"
"201129","Elizabeth Bay Rd at Elizabeth Bay Cr","-33.87198","151.230112","","","0"
"201130","Elizabeth Bay Rd at Holdsworth Ave","-33.872347","151.229181","","","0"
"201136","Greenknowe Ave at Baroda St","-33.871611","151.225742","","","0"
"201137","Macleay St at Rockwall Cr","-33.870046","151.225319","","","0"
"201139","Wylde St at Grantham St","-33.867364","151.225263","","","0"
"201140","Cowper Wharf Rd after Wylde St","-33.866826","151.223781","","","0"
"201141","Cowper Wharf Rd at Brougham St","-33.868767","151.222661","","","0"
"201142","Cowper Wharf Rd before Bourke St","-33.869174","151.219722","","","0"
"201143","Bourke St before Cathedral St","-33.872136","151.218692","","","0"
"201144","Bourke St before Harmer St","-33.871711","151.218607","","","0"
"201145","Bourke St at Nicholson St","-33.869567","151.219088","","","0"
"201146","Cowper Wharf Rd opp Brougham St","-33.868878","151.222209","","","0"
"201147","Cowper Wharf Rd opp Wylde St","-33.865446","151.224231","","","0"
"201150","Wylde St opp St Neot Ave","-33.867484","151.225594","","","0"
"201151","Macleay St opp McDonald St","-33.86828","151.225847","","","0"
"201152","Macleay St before Crick Ave","-33.870587","151.225396","","","0"
"201153","Macleay St before Darlinghurst Rd","-33.872682","151.22499","","","0"
"201154","William St near College Cr","-33.873692","151.213137","","","0"
"201157","Riley St opp Kennedy St","-33.87352","151.215481","","","0"
"201158","The Domain Sir John Young Cr","-33.871586","151.21651","","","0"
"201159","Riley St at Cathedral St","-33.872459","151.2158","","","0"
"201511","Green Square Station, Botany Rd","-33.906464","151.20289","","","0"
"201512","Botany Rd after Johnson St","-33.908173","151.20272","","","0"
"201513","Mitchell Rd at Harley St","-33.902872","151.191505","","","0"
"201514","Mitchell Rd at Maddox St","-33.904652","151.189853","","","0"
"201515","Euston Rd near Sydney Park Rd","-33.907015","151.191169","","","0"
"201516"," Botany Rd before O'Riordan St","-33.906975","151.202823","","","0"
"201517","Euston Rd near Maddox St","-33.905548","151.192292","","","0"
"201519","Botany Rd opp Harcourt Pde","-33.918936","151.198888","","","0"
"201521","Botany Rd at Beaconsfield St","-33.914784","151.200685","","","0"
"201522","Botany Rd before Collins St","-33.912989","151.201307","","","0"
"201523","Botany Rd opp Epsom Rd","-33.91037","151.202195","","","0"
"201524","Copeland St near Mitchell Rd","-33.901561","151.191846","","","0"
"201525","Sydney Park Rd near Mitchell Rd","-33.90757","151.187821","","","0"
"201526","Botany Rd at Mandible St","-33.903645","151.202104","","","0"
"201527","Botany Rd before McEvoy St","-33.901862","151.201225","","","0"
"201528","Botany Rd at Buckland St","-33.899103","151.20003","","","0"
"201529","Botany Rd before Henderson Rd","-33.89711","151.199334","","","0"
"201530","Wyndham St at Boundary St","-33.895106","151.198146","","","0"
"201532","Gardeners Rd 175m E of Bourke Rd","-33.920415","151.18962","","","0"
"201533","Gardeners Rd near O'Riordan St","-33.920811","151.192423","","","0"
"201534","Gardeners Rd after Ellis St","-33.921122","151.19467","","","0"
"201535","Collins St near Botany Rd","-33.912675","151.201232","","","0"
"201536","Collins St near O'Riordan St","-33.911173","151.196867","","","0"
"201537","Huntley St near Bourke Rd","-33.910576","151.194326","","","0"
"201538","Huntley St at Burrows Rd","-33.908821","151.191603","","","0"
"201539","Huntley St near Euston Rd","-33.908163","151.190885","","","0"
"201540","Huntley St near Bourke Rd","-33.910758","151.194908","","","0"
"201541","Collins St near O'Riordan St","-33.911246","151.19727","","","0"
"201544","75 Bourke Rd","-33.917581","151.188828","","","0"
"201545","Bourke St opp Orchard Rd","-33.916438","151.189869","","","0"
"201546","Bourke Rd opp Doody St","-33.914312","151.191787","","","0"
"201547","Bourke Rd before Huntley St","-33.911944","151.193985","","","0"
"201548","Bourke Rd at Collins St","-33.910181","151.195772","","","0"
"201549","Maddox St after Bourke Rd","-33.90897","151.195929","","","0"
"201550","Maddox St before Euston Rd","-33.906677","151.192449","","","0"
"201551","McEvoy St before Fountain St","-33.903018","151.195409","","","0"
"201552","McEvoy St at Loveridge St","-33.902204","151.197981","","","0"
"201554","McEvoy St after Botany Rd","-33.90168","151.200702","","","0"
"201555","McEvoy St at Hiles St","-33.901997","151.199461","","","0"
"201556","McEvoy St at Stokes Av","-33.902552","151.197198","","","0"
"201557","McEvoy St at Bowden St","-33.903367","151.195142","","","0"
"201558","Euston Rd at Maddox St","-33.905975","151.192132","","","0"
"201559","Maddox St at Bourke Rd","-33.909077","151.196444","","","0"
"201561","Bourke Rd opp Huntley St","-33.911317","151.19473","","","0"
"201562","Bourke Rd before Doody St","-33.91298","151.193207","","","0"
"201563","Bourke Rd before Doody St","-33.913913","151.192364","","","0"
"201564","Bourke St before Orchard Rd","-33.916575","151.189948","","","0"
"201565","Bourke St after Orchard Rd","-33.917518","151.189103","","","0"
"201567","Henderson Rd at Wyndham St","-33.896952","151.19854","","","0"
"201568","Henderson Rd before Mitchell Rd","-33.897546","151.196188","","","0"
"201569","Mitchell St at Buckland St","-33.899881","151.194197","","","0"
"201570","Mitchell Rd opp Copeland St","-33.901787","151.192501","","","0"
"201571","Mitchell Rd after Copeland St","-33.901432","151.192605","","","0"
"201572","Mitchell Rd opp Fountain St","-33.900523","151.193418","","","0"
"201573","Mitchell Rd before Henderson Rd","-33.89801","151.195271","","","0"
"201574","Henderson Rd before Garden St","-33.897154","151.196935","","","0"
"201578","McEvoy St at Wyndham St","-33.901732","151.19992","","","0"
"201579","Alexandria Park, Wyndham St","-33.899412","151.199074","","","0"
"201580","Botany Rd at Shirley St","-33.916641","151.200029","","","0"
"201585","Alan Davidson Oval, Sydney Park Rd","-33.907858","151.188432","","","0"
"201611","Elizabeth St opp Redfern Park","-33.89372","151.207316","","","0"
"201614","Redfern St at Pitt St","-33.892707","151.203732","","","0"
"201615","Chalmers St after Wells St","-33.891729","151.20559","","","0"
"201616","Chalmers St before Cleveland St","-33.890067","151.205909","","","0"
"201617","Elizabeth St at Cooper St","-33.891174","151.207773","","","0"
"201618","Redfern Park, Redfern St","-33.89325","151.206763","","","0"
"201619","Redfern St at Pitt St","-33.892875","151.204137","","","0"
"201620","Redfern St at George St","-33.892647","151.202407","","","0"
"201622","Regent St after Redfern St","-33.892976","151.200234","","","0"
"201623","Regent St opp Boundary St","-33.89506","151.199261","","","0"
"201624","Redfern Park, Elizabeth St","-33.893957","151.207022","","","0"
"201625","Elizabeth St at Redfern St","-33.892952","151.207475","","","0"
"201626","Elizabeth St before Phillip St","-33.895506","151.206962","","","0"
"201627","Baptist St at Zamia St","-33.895725","151.211718","","","0"
"201628","Baptist St at Telopea St","-33.894102","151.212028","","","0"
"201629","Baptist St before Cleveland St","-33.892528","151.212321","","","0"
"201631","Redfern Station, Gibbons St, Stand A","-33.892271","151.199426","","","0"
"201634","Phillip St at Young St","-33.896404","151.2093","","","0"
"201635","Cleveland St at Bourke St","-33.891885","151.214679","","","0"
"201636","Cleveland St at Baptist St","-33.89151","151.211936","","","0"
"201638","Cleveland St at Walker St","-33.890562","151.209292","","","0"
"201640","Cleveland St at Hart St","-33.88887","151.199879","","","0"
"201641","Phillip St at Baptist St","-33.896767","151.211909","","","0"
"201642","Baptist St after Cleveland St","-33.892427","151.21253","","","0"
"201643","Cleveland St near Pitt St","-33.889629","151.205225","","","0"
"201645","Baptist St at Telopea Lane","-33.894077","151.212247","","","0"
"201646","Redfern Station, Gibbons St, Stand B","-33.893107","151.198999","","","0"
"201647","Redfern St at Renwick St","-33.892358","151.201203","","","0"
"201711","Botany Rd before Raglan St","-33.896191","151.199218","","","0"
"201712","Botany Rd before Wellington St","-33.898084","151.19986","","","0"
"201713","Botany Rd before McEvoy St","-33.90109","151.201022","","","0"
"201714","Green Square School, Botany Rd","-33.904062","151.202522","","","0"
"201715","Botany Rd opp Green Square Station","-33.906178","151.203117","","","0"
"201716","Botany Rd opp Johnson St","-33.908777","151.202892","","","0"
"201717","Botany Rd at Epsom Rd","-33.909887","151.202533","","","0"
"201719","Elizabeth St after Joynton Ave","-33.906699","151.207067","","","0"
"201720","Elizabeth St before Bourke St","-33.904673","151.205483","","","0"
"201722","Waterloo Park, Elizabeth St","-33.900717","151.205969","","","0"
"201723","Wellington St at Pitt St","-33.89836","151.2044","","","0"
"201724","Elizabeth St at Wellington St","-33.898697","151.206267","","","0"
"201725","Elizabeth St at Phillip St","-33.896441","151.206551","","","0"
"201726","Elizabeth St at Wellington St","-33.898234","151.20645","","","0"
"201727","Elizabeth St before McEvoy St","-33.899813","151.206343","","","0"
"201728","Elizabeth St before Bourke St","-33.903775","151.20534","","","0"
"201729","Elizabeth St at Merton St","-33.905542","151.206353","","","0"
"201730","Elizabeth St at Joynton Ave","-33.906988","151.207506","","","0"
"201732","O'Dea Ave at Grandstand Pde","-33.903613","151.211394","","","0"
"201733","O'Dea Ave before Bourke St","-33.903346","151.207712","","","0"
"201734","O'Dea Ave after Bourke St","-33.903297","151.208215","","","0"
"201735","Bourke St at Powell St","-33.902397","151.207898","","","0"
"201736","Bourke St at McEvoy St","-33.901075","151.209358","","","0"
"201738","Bourke St at Danks St","-33.897664","151.212477","","","0"
"201742","Bourke St at Potter St","-33.898816","151.211667","","","0"
"201743","O'Dea Ave before South Dowling St","-33.903744","151.213516","","","0"
"201744","Joynton Ave at Austin Gr","-33.904489","151.209348","","","0"
"201745","Joynton Ave before Gadigal Ave","-33.906176","151.208414","","","0"
"201746","Epsom Rd opp Dalmeny Ave","-33.911815","151.210427","","","0"
"201749","Epsom Rd after Link Rd","-33.911998","151.211656","","","0"
"201750","Joynton Ave after Tilford St","-33.906103","151.208297","","","0"
"201751","O'Dea Ave opp Joynton Ave","-33.90332","151.210399","","","0"
"201754","Raglan St opp George St","-33.896731","151.202578","","","0"
"201755","Phillip St at Young St","-33.896603","151.209782","","","0"
"201763","Phillip St near Beaumont St","-33.896305","151.207323","","","0"
"201764","Wellington St near Gibson St","-33.898473","151.205987","","","0"
"201766","Raglan St after George St","-33.896818","151.201542","","","0"
"201767","Elizabeth St at Allen St","-33.902869","151.205403","","","0"
"201769","Wellington St near Cope St","-33.898509","151.20117","","","0"
"201770","Pitt St near Wellington St","-33.897931","151.203982","","","0"
"201771","Wellington St near Elizabeth St","-33.898352","151.206134","","","0"
"201772","Cope St near Raglan St","-33.897025","151.200442","","","0"
"201773","Cope St near Wellington St","-33.89842","151.200899","","","0"
"201774","Bourke St opp Lachlan St","-33.899606","151.210743","","","0"
"201775","Bourke St opp Powell St","-33.901992","151.208595","","","0"
"201811","Botany Rd opp Collins St","-33.912993","151.201483","","","0"
"201812","Botany Rd at Queen St","-33.914267","151.201045","","","0"
"201813","Botany Rd at Hayes Rd","-33.917029","151.200092","","","0"
"201814","Gardeners Rd opp Gillespie Ave","-33.920014","151.198087","","","0"
"201815","Botany Rd before Gardeners Rd","-33.92113","151.196914","","","0"
"201816","Botany Rd near Tramway St","-33.922729","151.196197","","","0"
"201817","Botany Rd near Rolfe St","-33.923652","151.196","","","0"
"201818","Botany Rd near Coward St","-33.925167","151.195711","","","0"
"201819","Gardeners Rd opp Leonard Av","-33.925395","151.220337","","","0"
"201820","Gardeners Rd near Eastern Av","-33.925183","151.218799","","","0"
"201821","Gardeners Rd near Tunstall Av","-33.924762","151.215688","","","0"
"201822","Gardeners Rd after Racecourse Pl","-33.923558","151.210597","","","0"
"201823","Gardeners Rd 150m E of Maloney St","-33.923283","151.208699","","","0"
"201824","Gardeners Rd near Maloney St","-33.922947","151.206638","","","0"
"201825","Gardeners Rd near Gordon St","-33.9226","151.20406","","","0"
"201826","Gardeners Rd near Sutherland St","-33.922307","151.201922","","","0"
"201827","Gardeners Rd opp Dunning Av","-33.922095","151.200356","","","0"
"201828","Gardeners Rd near Botany Rd","-33.921729","151.197716","","","0"
"201830","Harcourt Pde near Mentmore Av","-33.92008","151.201819","","","0"
"201831","Rothschild Av near Hayes St","-33.918799","151.203554","","","0"
"201832","Rothschild Av near Morley Av","-33.916564","151.204327","","","0"
"201833","Rothschild Ave before Cressy St","-33.913501","151.20536","","","0"
"201834","Rothschild Ave before Epsom Rd","-33.911922","151.205912","","","0"
"201835","Rothschild Ave at Stedman St","-33.912144","151.206004","","","0"
"201836","Rothschild Ave at Crewe Pl","-33.913905","151.205406","","","0"
"201837","Rothschild Av near Morley Av","-33.91616","151.204639","","","0"
"201838","Rothschild Av near Hayes St","-33.91789","151.204059","","","0"
"201839","Harcourt Pde opp Mentmore Av","-33.920334","151.202281","","","0"
"201840","Gardeners Rd near Botany Rd","-33.921501","151.197228","","","0"
"201841","Gardeners Rd near Dunning Av","-33.921927","151.200222","","","0"
"201842","Gardeners Rd opp Sutherland St","-33.922162","151.201936","","","0"
"201843","Gardeners Rd near Primrose Av","-33.922384","151.203593","","","0"
"201844","Gardeners Rd near Dalmeny Av","-33.92277","151.206434","","","0"
"201845","Gardeners Rd 150m E of Maloney St","-33.923081","151.208666","","","0"
"201846","Gardeners Rd opp Racecourse Pl","-33.923383","151.210944","","","0"
"201847","Racecourse Pl near Gardeners Rd","-33.924207","151.211129","","","0"
"201848","Evans Av near Longworth Av","-33.924757","151.209673","","","0"
"201849","Evans Av near Maloney St","-33.924327","151.206963","","","0"
"201850","Kimberley Gr near Dalmeny Av","-33.915895","151.207812","","","0"
"201851","Epsom Rd at Dunning Ave","-33.910404","151.204523","","","0"
"201854","Dalmeny Av near Harcourt Pde","-33.92141","151.2071","","","0"
"201855","Maloney St near Evans Av","-33.923713","151.206998","","","0"
"201856","Maloney St near George St","-33.926723","151.206297","","","0"
"201857","Sutherland St near Coward St","-33.925925","151.201002","","","0"
"201859","George St near Maloney St","-33.927496","151.207957","","","0"
"201860","George St near St Helena Pde","-33.927871","151.210307","","","0"
"201861","Lismore St at Florence Av","-33.928607","151.212095","","","0"
"201864","Florence Av near O'Connor St","-33.93053","151.211266","","","0"
"201865","Florence St near King St","-33.931662","151.210466","","","0"
"201866","King St near St Helena Pde","-33.931653","151.208475","","","0"
"201867","King St after Maloney St","-33.931151","151.204919","","","0"
"201868","Maloney St near Robinson St","-33.928915","151.205825","","","0"
"201870","King St near St Helena Pde","-33.931524","151.208591","","","0"
"201871","Florence Av near King St","-33.93158","151.210327","","","0"
"201872","Florence Av near O'Connor St","-33.930379","151.211179","","","0"
"201873","Florence Av near Lismore St","-33.929116","151.212077","","","0"
"201874","Lismore St near St Helena Pde","-33.928516","151.210532","","","0"
"201875","George St near St Helena Pde","-33.927769","151.208752","","","0"
"201876","Maloney St near Coward St","-33.926662","151.206125","","","0"
"201877","Evans Av near Maloney St","-33.924206","151.207107","","","0"
"201878","Evans Av near Dalby Pl","-33.924522","151.209067","","","0"
"201879","Evans Av near Racecourse Pl","-33.924363","151.210622","","","0"
"201880","Epsom Rd opp Link Rd","-33.912194","151.212046","","","0"
"201881","Epsom Rd at Dalmeny Ave","-33.911776","151.209617","","","0"
"201882","Queen St near Princess Av","-33.914272","151.202004","","","0"
"201883","Queen St near Rothschild Av","-33.914744","151.20472","","","0"
"201884","Epsom Rd before Dunning Ave","-33.910616","151.204882","","","0"
"201885","Dalmeny Av near Kimberley Gr","-33.916373","151.208154","","","0"
"201886","Rosebery Ave before Epsom Rd","-33.912673","151.208151","","","0"
"201887","Rosebery Ave after Epsom Rd","-33.913015","151.20821","","","0"
"201888","Dalmeny Av near Harcourt Pde","-33.920402","151.206927","","","0"
"201889","Dalmeny Av near Morley Av","-33.917765","151.207679","","","0"
"201890","Dalmeny Av near Rippon Way","-33.917863","151.207824","","","0"
"201891","Dunning Av near Gardeners Rd","-33.921641","151.200401","","","0"
"201892","Dunning Av near Gardeners Rd","-33.921752","151.200527","","","0"
"201912","Botany Rd near Foreshore Dr","-33.960649","151.212538","","","0"
"201913","Botany Rd opp Exell St","-33.959375","151.209092","","","0"
"201914","Botany Rd near Dent St","-33.95779","151.206967","","","0"
"201915","Botany Rd near Fremlin St","-33.955273","151.205156","","","0"
"201916","Botany Rd near Tupia St","-33.953553","151.202195","","","0"
"201917","Botany Rd opp Tenterden Rd","-33.95165","151.199056","","","0"
"201918","Botany Rd near Chelmsford Av","-33.95054","151.197465","","","0"
"201919","Botany Rd near Hale St","-33.947304","151.197217","","","0"
"201920","Botany Rd opp Hickson St","-33.943408","151.195674","","","0"
"201921","Botany Rd opp Daphne St","-33.942252","151.195122","","","0"
"201922","Botany Rd near Daphne St","-33.941852","151.195205","","","0"
"201923","Botany Rd after Bay St","-33.944179","151.19629","","","0"
"201925","Botany Rd near Hastings St","-33.946666","151.197428","","","0"
"201926","Botany Rd opp McFadyen St","-33.949199","151.197331","","","0"
"201927","Botany Rd near Cranbrook St","-33.95112","151.198559","","","0"
"201928","Botany Rd near Sir Joseph Banks St","-33.95283","151.201183","","","0"
"201929","Botany Rd near Wilson St","-33.954422","151.204628","","","0"
"201930","Botany Rd near Stephen Rd","-33.956322","151.205946","","","0"
"201931","Botany Rd opp Dent St","-33.957751","151.207182","","","0"
"201932","Botany Rd near Excell St","-33.959711","151.210533","","","0"
"201933","Botany Rd after Exell St","-33.960479","151.212585","","","0"
"201934","Botany Rd after Foreshore Rd","-33.961885","151.216758","","","0"
"201935","Beauchamp Rd at McPherson St","-33.960129","151.220592","","","0"
"201936","Beauchamp Rd opp Perry St","-33.958981","151.222089","","","0"
"201937","Page St near Collins St","-33.942869","151.212168","","","0"
"201938","Swinbourne St near Stephen Rd","-33.948605","151.209101","","","0"
"201939","Swinbourne St near Trevelyn St","-33.948328","151.206771","","","0"
"201940","William St near Aylesbury St","-33.946947","151.204811","","","0"
"201941","William St opp Morgan St","-33.94488","151.20478","","","0"
"201942","William St near Banksia St","-33.942932","151.204476","","","0"
"201943","Banksia St opp JasmineSt","-33.94301","151.203326","","","0"
"201944","Banksia St near Daniel St","-33.943555","151.200876","","","0"
"201945","Banksia St near Botany Rd","-33.944768","151.196801","","","0"
"201946","Banksia St near Daniel St","-33.94359","151.200096","","","0"
"201951","Banksia St near William St","-33.942798","151.20357","","","0"
"201952","William St near Brown Av","-33.943192","151.204688","","","0"
"201953","William St near Morgan St","-33.94437","151.204896","","","0"
"201954","William St near Hambly St","-33.946428","151.204998","","","0"
"201955","Swinbourne St near Queen St","-33.948052","151.206654","","","0"
"201956","Swinbourne St near Stephen Rd","-33.948474","151.209198","","","0"
"201957","Wentworth Av near Baker St","-33.943032","151.217964","","","0"
"201958","Botany Rd opp McCauley St","-33.964267","151.221953","","","0"
"201959","Botany Rd near McCauley St","-33.964097","151.222293","","","0"
"202012","Coward St near Elphick Av","-33.925009","151.192193","","","0"
"202013","Botany Rd near Gardeners Rd","-33.92193","151.196127","","","0"
"202014","Robey St before O'Riordan St","-33.930562","151.18541","","","0"
"202015","Sydney Airport, International Terminal (T1), Arrival Ct","-33.935375","151.165568","","","0"
"202016","Botany Rd near Wentworth Av","-33.935142","151.19383","","","0"
"202017","Botany Rd near Elizabeth Av","-33.931253","151.194161","","","0"
"202018","Botany Rd near Mascot Primary","-33.928628","151.194747","","","0"
"202019","Botany Rd near Forster St","-33.926857","151.195109","","","0"
"202021","Gardeners Rd near O'Riordan St","-33.921068","151.192893","","","0"
"202022","Gardeners Rd 175m East of Bourke Rd","-33.920602","151.189574","","","0"
"202023","Gardeners Rd before Kent Rd","-33.920135","151.186208","","","0"
"202024","Botany Rd near King St","-33.929253","151.19485","","","0"
"202025","Botany Rd near Hollingshed St","-33.932072","151.19422","","","0"
"202026","Botany Rd near Bronti St","-33.936213","151.194507","","","0"
"202027","Botany Rd near Lord St","-33.940437","151.195049","","","0"
"202028","Wenworth Av near Dransfield Av","-33.935042","151.201373","","","0"
"202029","Wentworth Av near Beresford St","-33.934449","151.196042","","","0"
"202031","Coward St near Oliver St","-33.925052","151.191522","","","0"
"202032","Sutherland St near J.J. Cahill High","-33.927537","151.200663","","","0"
"202033","Botany Rd near Tunbridge St","-33.927725","151.195165","","","0"
"202034","Kent Rd before Ricketty St","-33.921114","151.184651","","","0"
"202035","Ricketty St near Alexandra Canal","-33.920973","151.180897","","","0"
"202036","Ricketty St near Alexandra Canal","-33.92074","151.180808","","","0"
"202037","Kent Rd before Gardeners Rd","-33.920675","151.184434","","","0"
"202038","Maloney St near Garden St","-33.928321","151.205779","","","0"
"202039","King St near Hicks Av","-33.930827","151.20251","","","0"
"202040","King St near Sutherland St","-33.930531","151.200289","","","0"
"202041","King St near Frogmore St","-33.930258","151.198368","","","0"
"202042","King St before Botany Rd","-33.929837","151.19537","","","0"
"202045","Mascot Public School, King St","-33.929361","151.193033","","","0"
"202046","King St at Botany Rd","-33.929643","151.19505","","","0"
"202047","King St near Sutherland St","-33.930295","151.199741","","","0"
"202048","King St near Horner St","-33.930605","151.201911","","","0"
"202049","King St near Maloney St","-33.931007","151.204916","","","0"
"202050","Qantas Drive near QANTAS Jet Base","-33.926253","151.180421","","","0"
"202053","General Holmes Dr near Control Tower","-33.946838","151.16806","","","0"
"202057","O'Riordan St near Ewan St","-33.929065","151.186897","","","0"
"202058","Bourke Rd nr Coward St","-33.925452","151.187175","","","0"
"202059","Coward St near Kent Rd","-33.924102","151.185083","","","0"
"202060","Coward St near Kent Rd","-33.923969","151.18519","","","0"
"202061","Bourke Rd before O'Riordan St","-33.925657","151.187436","","","0"
"202064","O'Riordan St near Baxter Rd","-33.93122","151.18649","","","0"
"202065","King St near Middlemiss St","-33.930038","151.197791","","","0"
"202067","Sydney Airport, Domestic Terminal (T3), Shiers Av","-33.932923","151.179983","","","0"
"202070","Qantas Drive opp QANTAS Jet Base","-33.926272","151.18171","","","0"
"202073","O'Riordan St near King St","-33.92901","151.187097","","","0"
"202078","General Holmes Dr near Control Tower","-33.946903","151.168544","","","0"
"202080","Botany Rd near Carinya Av","-33.92397","151.195704","","","0"
"202081","Wentworth Av near Alfred St","-33.93405","151.197498","","","0"
"202084","Mascot Station, Bourke St, Stand C","-33.922496","151.187237","","","0"
"202085","Mascot Station, Bourke St, Stand D","-33.923456","151.187237","","","0"
"202087","Kent Rd near Church Av","-33.922994","151.184198","","","0"
"202088","Kent Rd near Ossary St","-33.922457","151.184082","","","0"
"202111","Anzac Pde opp Robertson Rd","-33.899559","151.222122","","","0"
"202112","Anzac Pde before Cleveland St","-33.895785","151.221506","","","0"
"202114","Anzac Pde near Sydney Girls High","-33.893937","151.22118","","","0"
"202115","Anzac Pde near Sydney Girls High","-33.893617","151.221129","","","0"
"202116","Sydney Girls High School, Anzac Pde","-33.893339","151.221077","","","0"
"202120","Sydney Boys High School, Anzac Pde","-33.891575","151.220701","","","0"
"202121","Sydney Boys High School, Anzac Pde","-33.891427","151.220656","","","0"
"202123","Anzac Pde opp Sydney Boys High School","-33.89059","151.220742","","","0"
"202124","Anzac Pde opp Sydney Girls High School","-33.893497","151.221428","","","0"
"202125","Lawson St near Goodhope St","-33.879901","151.229052","","","0"
"202128","Anzac Pde after Lang Rd","-33.89618","151.221875","","","0"
"202129","Anzac Pde before Robertson Rd","-33.898872","151.222374","","","0"
"202133","Sydney Boys High School, Cleveland St","-33.893025","151.218639","","","0"
"202136","Cleveland St opp Sydney Boys High School","-33.893194","151.218548","","","0"
"202138","Moore Park Busway at Robertson Rd","-33.899549","151.222589","","","0"
"202139","Moore Park Busway opp The Entertainment Quarter","-33.893283","151.221518","","","0"
"202144","Moore Park Busway at Lang Rd","-33.895516","151.221908","","","0"
"202147","Oxford St after York Rd","-33.89009","151.241261","","","0"
"202148","Oxford St opp Moncur St","-33.890841","151.238061","","","0"
"202150","Oxford St opp Queen St","-33.889184","151.232529","","","0"
"202151","Paddington Public School, Oxford St","-33.887668","151.230874","","","0"
"202152","Oxford St opp William St","-33.886137","151.228771","","","0"
"202153","Oxford St at Oatley Rd","-33.885125","151.226492","","","0"
"202154","Oxford St opp Brodie St","-33.884646","151.224108","","","0"
"202155","Oxford St opp Hopewell St","-33.883753","151.221656","","","0"
"202159","Oxford St at Glenmore Rd","-33.883629","151.221947","","","0"
"202160","Oxford St at Brodie St","-33.884428","151.224047","","","0"
"202161","Oxford St before Ormond St","-33.884878","151.225943","","","0"
"202162","Oxford St after William St","-33.886316","151.229351","","","0"
"202165","Hargrave St at Elizabeth St","-33.88444","151.234004","","","0"
"202166","Gurner St at Cascade St","-33.882553","151.231646","","","0"
"202167","Glenmore Rd at Heeley St","-33.882249","151.228581","","","0"
"202168","Glenmore Rd at Flinton St","-33.882322","151.22579","","","0"
"202169","Brown St at Macdonald St","-33.881519","151.224931","","","0"
"202170","Macdonald St at Liverpool St","-33.880968","151.223876","","","0"
"202171","Macdonald St at Liverpool St","-33.880875","151.22401","","","0"
"202172","Glenmore Rd opp Flinton St","-33.882259","151.226235","","","0"
"202173","Glenmore Rd before Goodhope St","-33.882167","151.227745","","","0"
"202175","Gurner St at Cascade St","-33.882456","151.231777","","","0"
"202176","Hargrave St after Elizabeth St","-33.884365","151.234149","","","0"
"202178","Hargrave St at Jersey Rd","-33.885978","151.236521","","","0"
"202179","Moore Park Rd near Cook Rd","-33.890016","151.232262","","","0"
"202180","Cook Rd near Mitchell St","-33.892445","151.230245","","","0"
"202181","Cook Rd near Darvall St","-33.894684","151.229205","","","0"
"202182","Cook Rd before Lang Rd","-33.896567","151.227366","","","0"
"202183","Lang Rd near Anzac Pde","-33.89551","151.223034","","","0"
"202184","Lang Rd near Anzac Pde","-33.895298","151.22284","","","0"
"202185","Cook Rd after Lang Rd","-33.896496","151.22722","","","0"
"202186","Cook Rd opp Darvall St","-33.894475","151.229186","","","0"
"202187","Cook Rd near Furber Lane","-33.892981","151.229663","","","0"
"202188","Cook Rd near Moore Park Rd","-33.890254","151.231649","","","0"
"202189","Moore Park Rd near Oxford St","-33.88975","151.232384","","","0"
"202190","Moore Park Rd near Regent St","-33.888681","151.227326","","","0"
"202191","Moore Park Rd opp Regent St","-33.888787","151.227026","","","0"
"202192","Lawson St at Vialoux Ave","-33.87962","151.228633","","","0"
"202193","Lang Rd near Fox Studios","-33.896231","151.225472","","","0"
"202194","Lang Rd near Fox Studios","-33.89637","151.225434","","","0"
"202196","Oxford St after Verona St","-33.882308","151.219919","","","0"
"202197","Oxford St at West St","-33.882179","151.220066","","","0"
"202212","Bondi Junction Station, Grafton St, Stand S","-33.890743","151.247891","","","0"
"202213","Bondi Junction Station, Grafton St, Stand T","-33.890832","151.248679","","","0"
"202214","Old South Head Rd after Flood St","-33.889501","151.258973","","","0"
"202221","Bourke St near Cuthbert St","-33.897353","151.249224","","","0"
"202222","Bourke St near Birrell St","-33.896278","151.249458","","","0"
"202223","Newland St near Birrell St","-33.895181","151.246641","","","0"
"202224","Newland St near Ebley St","-33.893584","151.24696","","","0"
"202225","Bronte Rd near Spring St","-33.892306","151.249686","","","0"
"202226","Queens Park Rd near York Rd","-33.898305","151.242902","","","0"
"202227","Bronte Rd near Gray St","-33.893001","151.249715","","","0"
"202228","Newland St near Birrell St","-33.895335","151.246771","","","0"
"202229","Bourke St near Birrell St","-33.896318","151.249615","","","0"
"202230","Bourke St near Cuthbert St","-33.897513","151.249352","","","0"
"202231","Bourke St near Queens Park Rd","-33.899303","151.248991","","","0"
"202232","Queens Park Rd opp Manning St","-33.899369","151.246683","","","0"
"202233","Bronte Rd near Birrell St","-33.896497","151.251325","","","0"
"202234","Bronte Rd near Ebley St","-33.894223","151.249766","","","0"
"202235","Bronte Rd near Birrell St","-33.895915","151.251145","","","0"
"202236","Baronga Av near Moriah College","-33.900364","151.244395","","","0"
"202237","Oxford St near Adelaide St","-33.891779","151.251399","","","0"
"202238","Oxford St opp Waverley Bus Depot","-33.890415","151.243024","","","0"
"202239","Oxford St opp Denison St","-33.891177","151.245478","","","0"
"202240","Oxford St near Newland St","-33.891648","151.247137","","","0"
"202241","Carrington Rd near John St","-33.902574","151.253041","","","0"
"202242","Queens Park Rd near Alt St","-33.898527","151.243966","","","0"
"202243","Queens Park Rd near Newland St","-33.899199","151.246469","","","0"
"202244","Bourke St near Arnold St","-33.89881","151.248921","","","0"
"202245","Queens Park Rd near Baronga Av","-33.898894","151.244535","","","0"
"202246","Queens Park Rd near York Rd","-33.898433","151.242753","","","0"
"202247","Carrington Rd near Victoria St","-33.900749","151.253437","","","0"
"202248","Oxford St near Grosvenor St","-33.89196","151.250353","","","0"
"202249","Bondi Junction Station, Stand B","-33.891398","151.249272","","","0"
"202251","Oxford St near Adelaide St","-33.8917","151.251621","","","0"
"202252","Bondi Rd near Ben Eden St","-33.891867","151.254334","","","0"
"202253","Bondi Rd near Paul St","-33.892787","151.256216","","","0"
"202254","Bondi Rd opp Flood St","-33.893297","151.258891","","","0"
"202255","Bondi Rd near Council St","-33.892901","151.255955","","","0"
"202256","Bondi Rd near Waverley Cr","-33.891667","151.253872","","","0"
"202257","Oxford St near Bronte Rd","-33.892142","151.250079","","","0"
"202258","Oxford St near Newland St","-33.891725","151.246876","","","0"
"202259","Oxford St near Denison St","-33.891289","151.245381","","","0"
"202260","Oxford St at St James Rd","-33.890432","151.242543","","","0"
"202262","Old South Head Rd near Paul St","-33.890058","151.255146","","","0"
"202263","Birrell St near Council St","-33.896463","151.253994","","","0"
"202264","Birrell St near Goldie Av","-33.896605","151.255902","","","0"
"202265","Birrell St opp Henrietta St","-33.896911","151.258201","","","0"
"202266","Bondi Junction Station, Stand P","-33.891294","151.249566","","","0"
"202267","Bondi Junction Station, Stand G","-33.891214","151.247729","","","0"
"202268","Bondi Junction Station, Grafton St, Stand Q","-33.890966","151.248394","","","0"
"202269","Bondi Junction Station, Stand A","-33.891415","151.249576","","","0"
"202270","Bondi Junction Station, Stand C","-33.891359","151.248961","","","0"
"202271","Bondi Junction Station, Stand D","-33.891336","151.24875","","","0"
"202272","Bondi Junction Station, Stand E","-33.891317","151.248536","","","0"
"202273","Bondi Junction Station, Stand F","-33.8913","151.248298","","","0"
"202275","Bondi Junction Station, Stand H","-33.891078","151.247845","","","0"
"202276","Bondi Junction Station, Stand J","-33.891094","151.248058","","","0"
"202277","Bondi Junction Station, Stand K","-33.891117","151.248253","","","0"
"202278","Bondi Junction Station, Stand L","-33.891136","151.24845","","","0"
"202279","Bondi Junction Station, Stand M","-33.891153","151.248625","","","0"
"202281","Bondi Junction Station, Grafton St, Stand R","-33.89091","151.247941","","","0"
"202312","Old South Head Rd near Victoria Rd","-33.889064","151.258091","","","0"
"202313","Old South Head Rd near Banksia Rd","-33.888046","151.261505","","","0"
"202315","Victoria Rd near Old South Head Rd","-33.888299","151.257976","","","0"
"202316","Victoria Rd near Bradley Av Reserve","-33.884306","151.2594","","","0"
"202317","Victoria Rd near Rivers St","-33.882539","151.258188","","","0"
"202318","Victoria Rd near March St","-33.880657","151.256599","","","0"
"202319","Victoria Rd near Mansion Rd","-33.879043","151.25416","","","0"
"202320","Victoria Rd opp Drumalbyn Rd","-33.878282","151.253356","","","0"
"202321","Victoria Rd opp Cranbrook Rd","-33.877291","151.252814","","","0"
"202322","Victoria Rd near Ginahgulla Rd","-33.875506","151.252851","","","0"
"202323","Victoria Rd near Scots College","-33.874232","151.25266","","","0"
"202324","Victoria Rd opp Aston Gdn","-33.873501","151.252632","","","0"
"202325","Victoria Rd opp Rose Bay Av","-33.873243","151.250313","","","0"
"202326","Victoria Rd near Rose Bay Av","-33.873099","151.250363","","","0"
"202327","Victoria Rd near Aston Gdn","-33.873217","151.252809","","","0"
"202328","Victoria Rd opp Ginahgulla Rd","-33.875482","151.253024","","","0"
"202329","Victoria Rd near Cranbrook Rd","-33.876977","151.252969","","","0"
"202330","Victoria Rd near Drumalbyn Rd","-33.878264","151.253562","","","0"
"202331","Victoria Rd opp Mansion Rd","-33.879563","151.254927","","","0"
"202332","Victoria Rd near Bellevue Hill Prim","-33.887136","151.259104","","","0"
"202333","Victoria Rd near Bellevue Hill School","-33.887391","151.259018","","","0"
"202334","Victoria Rd near Old South Head Rd","-33.888692","151.257677","","","0"
"202335","Bellevue Rd near Victoria Rd","-33.886768","151.258542","","","0"
"202336","Bellevue Rd opp Riddell St","-33.885968","151.256612","","","0"
"202337","Bellevue Rd opp Rivers St","-33.884992","151.255185","","","0"
"202338","Bellevue Rd near Cooper Park Rd","-33.883543","151.253593","","","0"
"202339","Bellevue Rd near Streatfield Rd","-33.882418","151.252322","","","0"
"202340","Bellevue Rd near Arthur St","-33.881681","151.250588","","","0"
"202341","Arthur St opp Carlotta Rd","-33.882439","151.249178","","","0"
"202342","Suttie Rd near Ranfurley Rd","-33.884171","151.248987","","","0"
"202343","Suttie Rd near Cooper Park","-33.885771","151.248302","","","0"
"202344","Suttie Rd opp Cooper Park","-33.885767","151.248122","","","0"
"202345","Suttie Rd opp Ranfurley Rd","-33.884004","151.248905","","","0"
"202346","Arthur St near Carlotta Rd","-33.882437","151.249043","","","0"
"202347","Arthur St near Bellevue Rd","-33.881467","151.25034","","","0"
"202348","Bellevue Rd near Bulkara Rd","-33.882137","151.251786","","","0"
"202349","Bellevue Rd near Fairweather St","-33.883555","151.253822","","","0"
"202350","Bellevue Rd near Rosslyn St","-33.884745","151.255117","","","0"
"202351","Bellevue Rd near Riddell St","-33.885873","151.256767","","","0"
"202352","Victoria Rd opp Bellevue Hill Prim","-33.886565","151.259074","","","0"
"202353","Birriga Rd opp Banksia Rd","-33.886399","151.26196","","","0"
"202354","Birriga Rd near Bennelong Cr","-33.886871","151.263864","","","0"
"202355","Birriga Rd near Bundarra Rd","-33.88539","151.26476","","","0"
"202356","Bellevue Rd nr New South Head Rd","-33.877413","151.245115","","","0"
"202357","Blaxland Rd near Bunyula Rd","-33.883167","151.262058","","","0"
"202358","Bunyula Rd near Blaxland Rd","-33.881915","151.261139","","","0"
"202359","Bunyala Rd near Balfour Rd","-33.880573","151.260424","","","0"
"202360","Balfour Rd near Balfour Lane","-33.87886","151.259455","","","0"
"202361","Balfour Rd 180m S of Plumer Rd","-33.877077","151.259139","","","0"
"202362","Balfour Rd near Plumer Rd","-33.875702","151.25904","","","0"
"202363","Salisbury Rd near Beresford Rd","-33.877611","151.25786","","","0"
"202364","Drumalbyn Rd opp Beresford Rd","-33.879114","151.257378","","","0"
"202365","Drumalbyn Rd near Victoria Rd","-33.878142","151.255619","","","0"
"202366","Drumalbyn Rd near Victoria Rd","-33.878003","151.255742","","","0"
"202367","Drumalbyn Rd near Beresford Rd","-33.879167","151.257534","","","0"
"202368","Beresford Rd near Salisbury Rd","-33.877903","151.257724","","","0"
"202369","Balfour Rd near Plumer Rd","-33.875686","151.259204","","","0"
"202370","Balfour Rd 150m S of Plumer Rd","-33.876858","151.25936","","","0"
"202371","Balfour Rd opp Balfour Lane","-33.878383","151.25951","","","0"
"202372","Bunyula Rd near Latimer St","-33.880856","151.260645","","","0"
"202373","Bunyula Rd near Blaxland Rd","-33.881958","151.261329","","","0"
"202374","Blaxland Rd near Bunyula Rd","-33.883142","151.262215","","","0"
"202376","Birriga Rd near O'Sullivan Rd","-33.88539","151.266893","","","0"
"202377","Birriga Rd near Old South Head Rd","-33.885574","151.267166","","","0"
"202378","Birriga Rd near Bundarra Rd","-33.885258","151.26497","","","0"
"202379","Birriga Rd opp Bennelong Cr","-33.886993","151.264511","","","0"
"202380","Birriga Rd near Banksia Rd","-33.88661","151.262091","","","0"
"202381","New South Head Rd at Rose Bay Ave","-33.870433","151.253121","","","0"
"202382","New South Head Rd opp Wolseley Rd","-33.871049","151.251525","","","0"
"202411","Carrington Rd near Bronte Rd","-33.900919","151.253576","","","0"
"202412","Carrington Rd opp John St","-33.903301","151.253073","","","0"
"202413","Carrington Rd near Pine St","-33.904584","151.252781","","","0"
"202415","Fern St at Albion St","-33.906197","151.253978","","","0"
"202416","Boundary St opp Park St","-33.910465","151.266532","","","0"
"202417","Boundary St opp Northumberland St","-33.91077","151.268571","","","0"
"202419","Albion St near Macpherson St","-33.904159","151.254318","","","0"
"202421","Albion St opp Bronte Rd","-33.90257","151.254716","","","0"
"202422","Bronte Rd at Carrington Rd","-33.900831","151.253772","","","0"
"202423","Bronte Rd near Waverley Court House","-33.89831","151.252031","","","0"
"202424","Bronte Rd near Church St","-33.897817","151.252121","","","0"
"202425","Bronte Rd at Carrington Rd","-33.899856","151.253331","","","0"
"202426","Bronte Rd near Albion St","-33.902379","151.254844","","","0"
"202427","St Catherines School","-33.903796","151.25488","","","0"
"202428","Albion St near Macpherson St","-33.904327","151.254386","","","0"
"202429","Macpherson St near Bronte Rd","-33.904925","151.256087","","","0"
"202430","Macpherson St near Lugar St","-33.905429","151.258367","","","0"
"202431","Macpherson St near Evans St","-33.905743","151.260438","","","0"
"202432","Macpherson St near St Thomas St","-33.906148","151.26396","","","0"
"202433","Macpherson St near Tipper Av","-33.906442","151.26745","","","0"
"202434","Bronte Rd near Pacific St","-33.906046","151.268812","","","0"
"202435","Bronte Beach Terminus","-33.904647","151.266622","","","0"
"202436","Bronte BeachTerminus","-33.904518","151.267053","","","0"
"202437","Bronte Rd opp Macpherson St","-33.906422","151.26908","","","0"
"202438","Macpherson St opp Tipper Av","-33.906661","151.267241","","","0"
"202439","Macpherson St near St Thomas St","-33.906235","151.26374","","","0"
"202440","Macpherson St opp Evans St","-33.905878","151.260321","","","0"
"202441","Macpherson St near Leichhardt St","-33.905549","151.258263","","","0"
"202442","Macpherson St near Wills Av","-33.905021","151.255806","","","0"
"202443","Carrington Rd near Waverley College","-33.8976","151.25425","","","0"
"202444","Carrington Rd opp St Clares","-33.899606","151.253841","","","0"
"202445","Carrington Rd near St Clares","-33.899235","151.253752","","","0"
"202446","Carrington Rd opp Waverley College","-33.897552","151.254099","","","0"
"202447","Alfred St opp Belgrave St","-33.899049","151.265488","","","0"
"202448","Alfred St near Hewlett St","-33.900648","151.26514","","","0"
"202449","Hewlett St near Murray St","-33.900543","151.263087","","","0"
"202450","Murray St 150m S of Hewlett St","-33.901458","151.261903","","","0"
"202451","Murray St near Bronte Rd","-33.902654","151.259793","","","0"
"202452","Murray St near Gibson St","-33.902289","151.25962","","","0"
"202453","Murray St 180m S of Hewlett St","-33.901386","151.261663","","","0"
"202454","Murray St near Hewlett St","-33.900576","151.262716","","","0"
"202455","Hewlett St near Alfred St","-33.900671","151.264785","","","0"
"202456","Hewlett St near Mirimar Av","-33.901491","151.268026","","","0"
"202458","Tamarama Marine Dr near Thompson St","-33.901398","151.26997","","","0"
"202459","Bronte Marine Dr near Hewlett St","-33.902327","151.269044","","","0"
"202460","Bayview St near Hewlett St","-33.901703","151.268099","","","0"
"202461","Hewlett St near Alfred St","-33.900864","151.265279","","","0"
"202462","Alfred St near Birrell St","-33.898487","151.265447","","","0"
"202463","Birrell St opp Watson St","-33.897668","151.262188","","","0"
"202464","Birrell St opp Bennett St","-33.897423","151.260739","","","0"
"202465","Birrell St near Henrietta St","-33.897056","151.258177","","","0"
"202466","Birrell St near Waverley College","-33.896681","151.255346","","","0"
"202467","Birrell St near Carrington Rd","-33.896623","151.253907","","","0"
"202468","Birrell St near Bronte Rd","-33.896359","151.252086","","","0"
"202470","Arden St near Clovelly Primary","-33.907355","151.259772","","","0"
"202472","Leichhardt St near Bronte Rd","-33.903969","151.256888","","","0"
"202473","Leichhardt St near Macpherson St","-33.904687","151.257062","","","0"
"202511","Oxford St at Jersey Rd","-33.888699","151.232315","","","0"
"202512","Oxford St at Victoria Av","-33.890041","151.23526","","","0"
"202513","Edgecliff Rd near Vernon St","-33.889778","151.246918","","","0"
"202514","Edgecliff Rd at Leswell St","-33.88953","151.245118","","","0"
"202515","Edgecliff Rd before Queen St","-33.887856","151.243785","","","0"
"202516","Queen St at Nelson St","-33.887608","151.242035","","","0"
"202517","Queen St before Ocean St","-33.887884","151.240618","","","0"
"202518","Queen St at Nelson St","-33.887443","151.242141","","","0"
"202519","Queen St at Edgecliff Rd","-33.887207","151.243407","","","0"
"202520","Edgecliff Rd opp Wallis St","-33.889145","151.244689","","","0"
"202521","Edgecliff Rd near Magney St","-33.889592","151.247156","","","0"
"202522","Ocean St at Queen St","-33.888254","151.239921","","","0"
"202523","Ocean St opp Wellington St","-33.886019","151.239336","","","0"
"202524","Ocean St before Jersey Rd","-33.883157","151.238553","","","0"
"202525","Ocean St at Trelawney St","-33.883658","151.238889","","","0"
"202526","Ocean St at Wellington St","-33.885567","151.23939","","","0"
"202527","Ocean St at Queen St","-33.887647","151.239953","","","0"
"202528","Ocean St at Queen St","-33.888202","151.240093","","","0"
"202529","Queen St before Moncur St","-33.88839","151.237803","","","0"
"202530","Moncur St at Jersey Rd","-33.886712","151.236629","","","0"
"202531","Moncur St at Queen St","-33.888209","151.2372","","","0"
"202532","Old South Head Rd near Edgecliff Rd","-33.890044","151.25489","","","0"
"202533","Suttie Rd near Manning Rd","-33.886492","151.246713","","","0"
"202534","Manning Rd near Epping Rd","-33.883956","151.246222","","","0"
"202535","Forth St near Woollahra Primary","-33.886656","151.24113","","","0"
"202536","Edgecliff Rd near Reddam School","-33.889544","151.252195","","","0"
"202537","Edgecliff Rd near Reddam School","-33.889375","151.252079","","","0"
"202611","Bondi Rd near Flood St","-33.893049","151.258192","","","0"
"202612","Bondi Rd near Penkivil St","-33.893489","151.261398","","","0"
"202613","Bondi Rd near Ocean St","-33.893724","151.262835","","","0"
"202614","Bondi Rd near Wellington St","-33.893976","151.264456","","","0"
"202615","Bondi Rd near Imperial Av","-33.894197","151.265973","","","0"
"202616","Bondi Rd near Castlefield St","-33.89439","151.26727","","","0"
"202617","Denham St near Fletcher St","-33.895849","151.268398","","","0"
"202618","Fletcher St near Dudley St","-33.897181","151.270594","","","0"
"202619","Bondi Rd opp Dudley St","-33.89524","151.271631","","","0"
"202620","Campbell Pde near Francis St","-33.894413","151.273097","","","0"
"202621","Campbell Pde near Lamrock Av","-33.892634","151.272895","","","0"
"202622","Campbell Pde near Hall St","-33.890613","151.27466","","","0"
"202623","Campbell Pde near Wairoa Av","-33.888818","151.277288","","","0"
"202625","Campbell Pde near Ramsgate Av","-33.889738","151.280587","","","0"
"202626","Campbell Pde Terminus","-33.889432","151.283135","","","0"
"202627","Campbell Pde Terminus","-33.889322","151.283232","","","0"
"202628","Military Rd near Wallis Pde","-33.887388","151.283601","","","0"
"202629","Military Rd near Blair St","-33.88613","151.284225","","","0"
"202630","Military Rd near O'Donnell St","-33.884653","151.283279","","","0"
"202631","Military Rd opp O'Donnell St","-33.884747","151.283506","","","0"
"202632","Military Rd opp Blair St","-33.886181","151.284403","","","0"
"202633","Military Rd opp Wallis Pde","-33.887607","151.283572","","","0"
"202634","Campbell Pde Terminus","-33.889606","151.283306","","","0"
"202635","Campbell Pde near Ramsgate Av","-33.889927","151.280497","","","0"
"202637","Campbell Pde opp Wairoa Av","-33.889155","151.278007","","","0"
"202638","Campbell Pde opp Curlewis St","-33.88975","151.275966","","","0"
"202639","Curlewis St near Gould St","-33.889457","151.274908","","","0"
"202640","Curlewis St near Glenayr Av","-33.887556","151.272024","","","0"
"202641","Curlewis St near Simpson St","-33.885294","151.268588","","","0"
"202652","Campbell Pde opp Hall St","-33.891073","151.274523","","","0"
"202653","Campbell Pde opp Hall St","-33.891134","151.274453","","","0"
"202654","Campbell Pde near Notts Av","-33.894371","151.273303","","","0"
"202656","Bondi Rd near Dudley St","-33.89531","151.271435","","","0"
"202657","Dudley St near Fletcher St","-33.897106","151.270912","","","0"
"202658","Denham St near Fletcher St","-33.896192","151.268317","","","0"
"202659","Bondi Rd near Denham St","-33.894608","151.267788","","","0"
"202660","Bondi Rd near Imperial Av","-33.894385","151.26632","","","0"
"202661","Bondi Rd near Watson St","-33.894045","151.264088","","","0"
"202662","Bondi Rd near Ocean St","-33.893834","151.262699","","","0"
"202663","Bondi Rd near Park Pde","-33.893474","151.260279","","","0"
"202664","O'Brien St near Simpson St","-33.888159","151.265942","","","0"
"202665","O'Brien St near Lamrock Av","-33.888932","151.267651","","","0"
"202666","Glenayr Av near O'Brien St","-33.88888","151.270655","","","0"
"202667","Glenayr Av near Curlewis St","-33.887504","151.27172","","","0"
"202668","Glenayr Av near Blair St","-33.885733","151.273422","","","0"
"202669","Blair St near Mitchell St","-33.885381","151.275656","","","0"
"202670","Mitchell St near O'Donnell St","-33.884122","151.276167","","","0"
"202671","Murriverie Rd near Hardy St","-33.882103","151.277136","","","0"
"202672","Murriverie Rd opp Frederick St","-33.882491","151.279829","","","0"
"202674","Wairoa Av near O'Donnell St","-33.884366","151.28105","","","0"
"202675","Blair St near Wairoa Av","-33.885684","151.281304","","","0"
"202676","Blair St near Wairoa Av","-33.885861","151.281082","","","0"
"202677","Wairoa Av near O'Donnell St","-33.884449","151.280874","","","0"
"202679","Murriverie Rd near Knowles Av","-33.882558","151.279499","","","0"
"202680","Murriverie Rd near Mitchell St","-33.882185","151.276855","","","0"
"202681","Murriverie Rd near Glenayr Av","-33.882099","151.276232","","","0"
"202682","Murriverie Rd near Plowman St","-33.881821","151.273808","","","0"
"202683","Murriverie Rd near Old South Head Rd","-33.881465","151.270371","","","0"
"202684","Murriverie Rd near Shaw St","-33.881378","151.270646","","","0"
"202685","Murriverie Rd near Justus St","-33.881704","151.273777","","","0"
"202686","Murriverie Rd near Nancy St","-33.881963","151.276236","","","0"
"202687","Mitchell St near O'Donnell St","-33.883827","151.276377","","","0"
"202688","Mitchell St near Blair St","-33.885204","151.276098","","","0"
"202692","Glenayr Av near Warners Av","-33.885975","151.273395","","","0"
"202693","Glenayr Av near Curlewis St","-33.88727","151.272167","","","0"
"202694","Glenayr Av near Hall St","-33.888729","151.27057","","","0"
"202695","O'Brien St near Lamrock Av","-33.889078","151.267593","","","0"
"202696","O'Brien St near Old South Head Rd","-33.887876","151.265228","","","0"
"202697","Old South Head Rd near Penkivil St","-33.888107","151.263237","","","0"
"202699","Old South Head Rd near Owen St","-33.879507","151.27056","","","0"
"202711","Edgecliff Station, Stand A","-33.879197","151.235931","","","0"
"202713","Edgecliff Station, Stand L","-33.879496","151.23624","","","0"
"202714","Edgecliff Station, Stand C","-33.879149","151.236067","","","0"
"202715","Edgecliff Station, Stand D","-33.879306","151.236025","","","0"
"202716","Edgecliff Station, Stand E","-33.879449","151.235986","","","0"
"202717","Edgecliff Station, Stand F","-33.879172","151.236189","","","0"
"202718","Edgecliff Station, Stand G","-33.879327","151.23615","","","0"
"202719","Edgecliff Station, Stand H","-33.879474","151.236111","","","0"
"202720","Edgecliff Station, Stand J","-33.879194","151.236319","","","0"
"202721","Edgecliff Station, Stand K","-33.879349","151.236277","","","0"
"202722","Edgecliff Station, Stand M","-33.879214","151.236436","","","0"
"202723","Ocean St after Albert St","-33.88162","151.238271","","","0"
"202724","New South Head Rd before Wolseley Rd","-33.871337","151.250966","","","0"
"202725","New South Head Rd at Wunulla Rd","-33.870048","151.252","","","0"
"202726","Edgecliff Station, New South Head Rd, Stand N","-33.878943","151.236187","","","0"
"202741","New Beach Rd near Rushcutters Bay Pk","-33.875111","151.233135","","","0"
"202742","New Beach Rd opp Loftus Rd","-33.874508","151.233842","","","0"
"202743","New Beach Rd near Yacht Club","-33.872684","151.235419","","","0"
"202744","New Beach Rd opp Yarranabbe Rd","-33.870949","151.236102","","","0"
"202745","Thornton St opp Bennett Av","-33.868973","151.236818","","","0"
"202746","Thornton St near Darling Point Rd","-33.868855","151.238975","","","0"
"202747","Etham Av near Sutherland Cr","-33.868962","151.240325","","","0"
"202748","Etham Ave at Darling Point Rd","-33.870893","151.238483","","","0"
"202749","Darling Point Rd at Eastbourne Rd","-33.872858","151.23806","","","0"
"202750","Darling Point Rd near Greenoaks Av","-33.874274","151.236324","","","0"
"202751","Darling Point Rd near St Marks Rd","-33.875728","151.235571","","","0"
"202752","Darling Point Rd near New Sth Head Rd","-33.878088","151.235165","","","0"
"202753","New South Head Rd opp Mona Rd","-33.877592","151.23385","","","0"
"202754","New South Head Rd opp New Beach Rd","-33.876941","151.232025","","","0"
"202755","Bayswater Rd before New Beach Rd","-33.876581","151.231217","","","0"
"202756","New South Head Rd after Mona Rd","-33.877621","151.234234","","","0"
"202757","Edgecliff Station, New South Head Rd, Stand P","-33.87863","151.235815","","","0"
"202811","Manning Rd near Wallaroy Cr","-33.880851","151.244468","","","0"
"202812","Manning Rd near New South Head Rd","-33.878677","151.242197","","","0"
"202813","Manning Rd near New South Head Rd","-33.878894","151.242532","","","0"
"202814","Manning Rd near Court St","-33.880121","151.243727","","","0"
"202815","Manning Rd opp Wallaroy Cr","-33.881044","151.24477","","","0"
"202816","Manning Rd near Epping Rd","-33.883416","151.246095","","","0"
"202817","Manning Rd near Suttie Rd","-33.886112","151.246505","","","0"
"202818","New South Head Rd at Henrietta St","-33.878607","151.23991","","","0"
"202819","New South Head Rd at Knox St","-33.877541","151.24309","","","0"
"202820","New South Head Rd at William St","-33.875366","151.246378","","","0"
"202829","New South Head Rd before Gladswood Gdns","-33.873553","151.247072","","","0"
"202830","New South Head Rd opp Victoria Rd","-33.872559","151.248748","","","0"
"202831","New South Head Rd after Victoria Rd","-33.873132","151.247602","","","0"
"202832","New South Head Rd at Preston Ave","-33.874555","151.247317","","","0"
"202833","New South Head Rd opp Knox St","-33.877771","151.243066","","","0"
"202835","New South Head Rd opp Henrietta St","-33.878725","151.240168","","","0"
"202911","Victory St near Dover Rd","-33.873746","151.276754","","","0"
"202912","Dover Rd at Old South Head Rd","-33.873526","151.273824","","","0"
"202913","Victory St near Strickland St","-33.873629","151.276654","","","0"
"202914","Victory St near Gilbert St","-33.872839","151.277934","","","0"
"202918","Old South Head Rd near O'Sullivan Rd","-33.884534","151.268197","","","0"
"202919","Old South Head Rd opp Murriverie Rd","-33.880614","151.27032","","","0"
"202920","Old South Head Rd near Newcastle St","-33.877049","151.27088","","","0"
"202921","Old South Head Rd near Albemarle Av","-33.874801","151.272563","","","0"
"202922","Dover Rd at Old South Head Rd","-33.873192","151.273415","","","0"
"202923","Dover Rd near New South Head Rd","-33.870009","151.270014","","","0"
"202924","Dover Rd near Ian St","-33.870011","151.270232","","","0"
"202925","Dover Rd near Carlisle St","-33.871708","151.271933","","","0"
"202926","Old South Head Rd at Dover Rd","-33.873588","151.273381","","","0"
"202929","Albemarle Av near Rose Bay Primary","-33.87334","151.270682","","","0"
"202930","Old South Head Rd opp Roberts St","-33.871164","151.275173","","","0"
"202931","Old South Head Rd opp Princess St","-33.869834","151.276331","","","0"
"202932","Old South Head Rd near Mitchell Rd","-33.86801","151.277335","","","0"
"202933","Old South Head Rd near Dudley Rd","-33.866044","151.277904","","","0"
"202934","Old South Head Rd near Oceanview Av","-33.864935","151.278414","","","0"
"202935","Old South Head Rd near Lancaster Rd","-33.868137","151.277474","","","0"
"202936","Old South Head Rd near Princess St","-33.870186","151.276254","","","0"
"202937","Old South Head Rd near Roberts St","-33.871252","151.275295","","","0"
"202938","Old South Head Rd at Dover Rd","-33.873232","151.273802","","","0"
"202939","Old South Head Rd near Beaumont St","-33.874168","151.273201","","","0"
"202940","Old South Head Rd near Onslow St","-33.875897","151.272117","","","0"
"202941","Old South Head Rd near The Avenue","-33.877389","151.270752","","","0"
"202942","New South Head Rd opp Cranbrook Rd","-33.871185","151.255252","","","0"
"202943","New South Head Rd opp Salisbury Rd","-33.871857","151.256946","","","0"
"202944","New South Head Rd opp O'Sullivan Rd","-33.872333","151.259261","","","0"
"202946","New South Head Rd opp Elanora St","-33.872695","151.262543","","","0"
"202947","New South Head Rd near Vickery Av","-33.871727","151.265391","","","0"
"202948","New South Head Rd opp Norwich Rd","-33.871001","151.267377","","","0"
"202949","New South Head Rd at Caledonian Rd","-33.869335","151.270004","","","0"
"202950","New South Head Rd near Dumaresq Rd","-33.867504","151.271131","","","0"
"202951","New South Head Rd near Kambala School","-33.865412","151.272739","","","0"
"202952","New South Head Rd near Rawson Rd","-33.865582","151.272795","","","0"
"202953","New South Head Rd near Fernleigh Gdns","-33.86753","151.271801","","","0"
"202954","New South Head Rd near Dover Rd","-33.869092","151.27058","","","0"
"202955","New South Head Rd near Newcastle St","-33.870042","151.269367","","","0"
"202956","New South Head Rd near Norwich Rd","-33.870954","151.267871","","","0"
"202957","New South Head Rd near Kent Rd","-33.872054","151.265061","","","0"
"202958","New South Head Rd at Elanora St","-33.872952","151.262656","","","0"
"202959","New South Head Rd near O'Sullivan Rd","-33.872608","151.260275","","","0"
"202960","New South Head Rd near Salisbury Rd","-33.872205","151.257579","","","0"
"202961","New South Head Rd near Cranbrook Rd","-33.871587","151.255704","","","0"
"203011","Military Rd opp Hugh Bamford Reserve","-33.882893","151.282442","","","0"
"203012","Military Rd opp Wentworth St","-33.881375","151.28243","","","0"
"203013","Military Rd near Loombah Rd","-33.880442","151.281428","","","0"
"203014","Military Rd near Hardy St","-33.879468","151.28008","","","0"
"203015","Military Rd near Raleigh St","-33.877942","151.279782","","","0"
"203017","Military Rd near Dover Rd","-33.874832","151.280434","","","0"
"203018","Military Rd near Blake St","-33.872838","151.280636","","","0"
"203019","Military Rd near Weonga Rd","-33.87093","151.281027","","","0"
"203020","Lancaster Rd near Military Rd","-33.86837","151.28115","","","0"
"203021","Peel St near Kobada Rd","-33.866659","151.280076","","","0"
"203022","Military Rd near Oceanview Av","-33.865139","151.280722","","","0"
"203025","Military Rd near Old South Head Rd","-33.86292","151.278612","","","0"
"203026","Military Rd near Old South Head Rd","-33.862929","151.279305","","","0"
"203027","Military Rd near Kimberley St","-33.86475","151.280939","","","0"
"203029","Peel St near George St","-33.867213","151.280117","","","0"
"203031","Portland St 250m S of Lancaster Rd","-33.870454","151.279994","","","0"
"203032","Portland St near Blake St","-33.87226","151.279657","","","0"
"203033","Victory St near Gilbert St","-33.87278","151.27838","","","0"
"203034","Portland St near Blake St","-33.872039","151.27958","","","0"
"203035","Portland St 250m S of Lancaster Rd","-33.870497","151.279836","","","0"
"203036","Portland St near Lancaster Rd","-33.86839","151.280304","","","0"
"203037","Lancaster Rd near Military Rd","-33.86832","151.281462","","","0"
"203038","Military Rd near Weonga Rd","-33.871066","151.28113","","","0"
"203039","Military Rd near Blake St","-33.872392","151.28086","","","0"
"203040","Military Rd near Dover Rd","-33.87406","151.28052","","","0"
"203042","Military Rd near Raleigh St","-33.87768","151.279981","","","0"
"203044","Rose Bay Secondary College Stand 4","-33.878458","151.277447","","","0"
"203046","Rose Bay Secondary College Stand 2","-33.878118","151.277514","","","0"
"203049","Military Rd near Arthur St","-33.879483","151.281042","","","0"
"203050","Military Rd near Wentworth St","-33.880951","151.282278","","","0"
"203051","Military Rd near Hugh Bamford Reserve","-33.882947","151.28257","","","0"
"203052","Kesser Torah College, Blake St","-33.872691","151.282226","","","0"
"203053","Old South Head Rd near Captain Pipers Rd","-33.863981","151.278408","","","0"
"203054","Old South Head Rd near Clarendon St","-33.862137","151.278152","","","0"
"203055","Old South Head Rd near Billong Av","-33.860779","151.278444","","","0"
"203056","Old South Head Rd after Laguna St","-33.859191","151.280083","","","0"
"203061","Old South Head Rd near South Head Cemetery","-33.857377","151.281951","","","0"
"203062","Old South Head Rd near Village High Rd","-33.856258","151.283176","","","0"
"203063","Old South Head Rd near Macquarie Rd","-33.85425","151.284358","","","0"
"203064","Old South Head Rd near Georges Rd","-33.852883","151.284864","","","0"
"203065","Old South Head Rd near Cambridge Av","-33.850562","151.286242","","","0"
"203066","Old South Head Rd near Belah Av","-33.848703","151.286641","","","0"
"203067","Old South Head Rd near Derby St","-33.847243","151.286065","","","0"
"203068","Old South Head Rd near Salisbury St","-33.846161","151.283493","","","0"
"203069","Military Rd Terminus","-33.843777","151.283983","","","0"
"203070","Military Rd Terminus","-33.843696","151.284167","","","0"
"203071","Old South Head Rd near Salisbury St","-33.84595","151.283538","","","0"
"203072","Old South Head Rd near Gap Park","-33.847035","151.286069","","","0"
"203073","Old South Head Rd near Belah Av","-33.849031","151.286904","","","0"
"203074","Old South Head Rd near Cambridge Av","-33.850653","151.286399","","","0"
"203075","Old South Head Rd near Georges Rd","-33.852842","151.285082","","","0"
"203076","Old South Head Rd near Macquarie Rd","-33.854069","151.284629","","","0"
"203077","Old South Head Rd near Village High Rd","-33.856079","151.283501","","","0"
"203078","Old South Head Rd near South Head Cemetery","-33.857574","151.281882","","","0"
"203079","Old South Head Rd near Burge St","-33.859309","151.280204","","","0"
"203080","Old South Head Rd near Billong Av","-33.860815","151.278634","","","0"
"203081","Old South Head Rd near Military Rd","-33.863106","151.278499","","","0"
"203082","New South Head near Vaucluse","-33.863922","151.272187","","","0"
"203083","Vaucluse Rd near Gilliver Av","-33.861441","151.270464","","","0"
"203084","Vaucluse Rd near Queens Av","-33.86029","151.270162","","","0"
"203085","Vaucluse Rd near Carrara Rd","-33.858802","151.270415","","","0"
"203086","Vaucluse Rd 150m N of Carrara Rd","-33.857423","151.270043","","","0"
"203087","Vaucluse Rd near Strickland House","-33.85518","151.268645","","","0"
"203088","Vaucluse Rd near Greycliffe Av","-33.853505","151.269462","","","0"
"203097","Wentworth Rd near Coolong Rd","-33.853897","151.271479","","","0"
"203098","Vaucluse Park, Wentworth Rd","-33.853879","151.27357","","","0"
"203099","Wentworth Rd near Chapel Rd","-33.851149","151.274183","","","0"
"203111","Alison Rd opp Randwick Racecourse","-33.906745","151.232036","","","0"
"203112","Alison Rd near Cowper St","-33.908008","151.233917","","","0"
"203113","Cowper St near Prince St","-33.908697","151.23638","","","0"
"203114","High St opp Randwick Racecourse","-33.915266","151.22802","","","0"
"203115","UNSW Gate 8, High St","-33.915996","151.233377","","","0"
"203116","UNSW Gate 8, High St","-33.916035","151.23368","","","0"
"203117","Botany St near High St","-33.916773","151.236401","","","0"
"203118","Botany St near High St","-33.916815","151.236556","","","0"
"203119","Perouse Rd near Coogee Bay Rd","-33.918658","151.242385","","","0"
"203120","Botany St near Barker St","-33.920464","151.235744","","","0"
"203121","UNSW Gate 3, High St","-33.915525","151.230013","","","0"
"203122","Perouse Rd near St Paul St","-33.919996","151.242713","","","0"
"203123","Canberra St near Perouse Rd","-33.92385","151.244002","","","0"
"203124","Oberon St opp Henry St","-33.925028","151.246314","","","0"
"203125","Oberon St near Canberra St","-33.924709","151.244409","","","0"
"203126","Canberra St near Howard St","-33.92346","151.24387","","","0"
"203127","Canberra St near Oberon St","-33.924909","151.243769","","","0"
"203128","Canberra St near Bundock St","-33.927335","151.243262","","","0"
"203129","Bundock St near Ellen St","-33.92775","151.245402","","","0"
"203130","Bundock St opp Ellen St","-33.927891","151.245542","","","0"
"203131","Bundock St near Canberra St","-33.9276","151.243353","","","0"
"203132","Canberra St near Oberon St","-33.924656","151.243659","","","0"
"203133","Perouse Rd near Soudan St","-33.919531","151.242429","","","0"
"203135","Belmore Rd near Arthur St","-33.91561","151.240484","","","0"
"203136","Belmore Rd near Alison Rd","-33.913171","151.23945","","","0"
"203137","Cook St near Frances St","-33.910453","151.239293","","","0"
"203138","Cowper St near Church St","-33.909179","151.238882","","","0"
"203139","Cowper St opp Mulwarree Av","-33.908689","151.235286","","","0"
"203142","Australian Turf Club, Alison Rd","-33.905665","151.229251","","","0"
"203143","Alison Rd before Doncaster Ave","-33.904108","151.225818","","","0"
"203144","Darley Rd opp Randwick TAFE","-33.905753","151.231466","","","0"
"203145","Darley Rd near Main Gate Centennial Park","-33.904882","151.233629","","","0"
"203146","Darley Rd opp Govett St","-33.904339","151.236407","","","0"
"203147","Darley Rd opp Evans St","-33.903524","151.237941","","","0"
"203148","Clovelly Rd near Darley Rd","-33.902963","151.241974","","","0"
"203149","Clovelly Rd near Earl St","-33.903526","151.242892","","","0"
"203150","Avoca St at Darley Rd","-33.903029","151.244693","","","0"
"203151","Avoca St after Darley Rd","-33.903328","151.244807","","","0"
"203152","Earl St near Clovelly Rd","-33.903636","151.243218","","","0"
"203153","Randwick, High St nr Botany St","-33.916517","151.236914","","","0"
"203154","Arthur St nr Clara St","-33.915491","151.239149","","","0"
"203155","Stanley St near Avoca St","-33.90769","151.243996","","","0"
"203156","Avoca St near Astolat St","-33.908849","151.244149","","","0"
"203157","Frenchmans Rd near Clovelly Rd","-33.908393","151.247121","","","0"
"203158","Clovelly Rd opp Gilderthorpe Av","-33.906437","151.246664","","","0"
"203159","Clovelly Rd near Avoca St","-33.904977","151.244701","","","0"
"203160","Clovelly Rd near Earl St","-33.903828","151.2431","","","0"
"203161","Clovelly Rd near Avoca St","-33.904407","151.244285","","","0"
"203162","Clovelly Rd near Market St","-33.905811","151.246306","","","0"
"203163","Clovelly Rd near Frenchmans Rd","-33.907953","151.247471","","","0"
"203164","Clovelly Rd near Searle St","-33.909349","151.249056","","","0"
"203165","Clovelly Rd near Carrington Rd","-33.909877","151.251295","","","0"
"203166","Clovelly Rd near Fern St","-33.911401","151.254","","","0"
"203167","Fern St near Clovelly Rd","-33.911249","151.254201","","","0"
"203168","Fern St near Greville St","-33.909795","151.254513","","","0"
"203169","Fern St near Douglas St","-33.908357","151.254831","","","0"
"203170","Fern St at Albion St","-33.906133","151.25376","","","0"
"203172","Carrington Rd near Darley St","-33.904593","151.252626","","","0"
"203173","Fern St near Douglas St","-33.907808","151.254831","","","0"
"203174","Fern St near Greville St","-33.910002","151.254633","","","0"
"203175","Fern St near Clovelly Rd","-33.911365","151.254334","","","0"
"203176","Clovelly Rd near Knox St","-33.911708","151.256012","","","0"
"203177","Clovelly Rd near Arden St","-33.912022","151.258249","","","0"
"203178","Clovelly Rd near Beach St","-33.912277","151.259753","","","0"
"203179","Clovelly Rd near Mundarrah St","-33.91255","151.261786","","","0"
"203180","Clovelly Rd near Keith St","-33.912671","151.263298","","","0"
"203181","Keith St near Boundary St","-33.910265","151.263908","","","0"
"203182","Ocean St near Boundary St","-33.911361","151.269642","","","0"
"203183","Eastbourne Av near Burrows Park","-33.913897","151.269026","","","0"
"203184","Ocean St near Boundary St","-33.911238","151.26955","","","0"
"203185","Boundary St near Northumberland St","-33.910885","151.268417","","","0"
"203186","Boundary St near Park St","-33.910633","151.266759","","","0"
"203187","Boundary St near Keith St","-33.910223","151.26414","","","0"
"203188","Keith St near Clovelly Rd","-33.912666","151.26353","","","0"
"203189","Clovelly Rd Terminus","-33.913934","151.265943","","","0"
"203190","Clovelly Rd Terminus","-33.914644","151.266695","","","0"
"203191","Clovelly Rd near Walker St","-33.913838","151.265507","","","0"
"203192","Clovelly Rd near Keith St","-33.912795","151.263176","","","0"
"203193","Clovelly Rd near Mundarrah St","-33.912674","151.262238","","","0"
"203194","Clovelly Rd near Beach St","-33.912468","151.260108","","","0"
"203195","Clovelly Rd near Carrington Rd","-33.910171","151.251722","","","0"
"203196","Coogee Bay Rd near Perouse Rd","-33.918279","151.242535","","","0"
"203197","Coogee Bay Rd near Perouse Rd","-33.918085","151.242583","","","0"
"203198","Carrington Rd near Queen St","-33.919177","151.24824","","","0"
"203199","Carrington Rd near Coogee St","-33.916718","151.248778","","","0"
"203211","Bunnerong Rd near Joffre Cr","-33.92902","151.22916","","","0"
"203212","Bunnerong Rd near Sergeant Larkin Cr","-33.927048","151.228603","","","0"
"203213","Kingsford Nine Ways, Anzac Pde - Stand B","-33.923637","151.227451","","","0"
"203214","Kingsford Nine Ways, Anzac Pde - Stand C","-33.924027","151.227679","","","0"
"203216","Kingsford Nine Ways, Anzac Pde - Stand F","-33.923422","151.227639","","","0"
"203217","Kingsford Nine Ways, Anzac Pde - Stand D","-33.923939","151.227943","","","0"
"203218","Kingsford Nine Ways, Anzac Pde - Stand E","-33.923695","151.227794","","","0"
"203219","Botany St near Hay St","-33.91995","151.235682","","","0"
"203220","Anzac Pde near Barker St","-33.91965","151.226358","","","0"
"203221","Bunnerong Rd near Anderson St","-33.927194","151.228835","","","0"
"203222","Bunnerong Rd near Apsley Av","-33.928474","151.2292","","","0"
"203223","Bunnerong Rd near Daceyville Primary","-33.929304","151.229411","","","0"
"203224","Bunnerong Rd opp Prince Edward Cir","-33.931505","151.229838","","","0"
"203225","Bunnerong Rd near Snape St","-33.933351","151.230364","","","0"
"203226","Bunnerong Rd at General Bridges Cres","-33.925637","151.228173","","","0"
"203227","Gwea Av","-33.929672","151.224523","","","0"
"203228","Gardeners Rd before General Bridges Cres","-33.925159","151.227142","","","0"
"203229","Gardeners Rd near Solander Rd","-33.925497","151.225183","","","0"
"203230","Gardeners Rd near Astrolabe Rd","-33.925638","151.222891","","","0"
"203231","Gardeners Rd near Maitland Av","-33.924536","151.21583","","","0"
"203232","Gardeners Rd near Eastern Av","-33.924893","151.218384","","","0"
"203233","Gardeners Rd near Leonard Av","-33.925155","151.220326","","","0"
"203234","Gardeners Rd near Doncaster Av","-33.92543","151.222896","","","0"
"203235","Gardeners Rd near Bruce St","-33.92533","151.224931","","","0"
"203236","Gardeners Rd at Houston Rd","-33.924956","151.226969","","","0"
"203237","Eastern Av near Gardeners Rd","-33.924593","151.218578","","","0"
"203238","Eastern Av near Tressider Av","-33.922231","151.219181","","","0"
"203239","Eastern Av near Goodrich Av","-33.92029","151.219674","","","0"
"203240","Eastern Av near Day Av","-33.917255","151.220323","","","0"
"203241","Day Av near Eastern Av","-33.917198","151.220626","","","0"
"203242","Eastern Av near Goodrich Av","-33.920094","151.21987","","","0"
"203243","Eastern Av near Tressider Av","-33.921843","151.219414","","","0"
"203244","Eastern Av near Gardeners Rd","-33.924558","151.218729","","","0"
"203245","Anzac Pde near Wallace St","-33.924931","151.229472","","","0"
"203246","Anzac Pde near Sturt St","-33.926146","151.231221","","","0"
"203247","Anzac Pde at Botany St","-33.927656","151.233007","","","0"
"203248","Anzac Pde near Paton St","-33.929414","151.235859","","","0"
"203249","Anzac Pde near Burbong St","-33.931153","151.23717","","","0"
"203250","Anzac Pde near Avoca St","-33.932682","151.237569","","","0"
"203251","Anzac Pde near Fischer St","-33.932762","151.236974","","","0"
"203252","Anzac Pde near Broadbent St","-33.93142","151.236644","","","0"
"203253","Anzac Pde at Botany St","-33.928555","151.233226","","","0"
"203254","Anzac Pde near Hayward St","-33.926996","151.231377","","","0"
"203255","Barker St near Gate 14","-33.919787","151.229441","","","0"
"203256","Barker St opp UNSW Gate 14","-33.919912","151.229465","","","0"
"203257","Moverly Rd near Garden St","-33.935385","151.243256","","","0"
"203259","Moverly Rd near Cooper St","-33.935806","151.246331","","","0"
"203260","Avoca St near Bundock St","-33.926735","151.239215","","","0"
"203261","Avoca St opp Burbong St","-33.92993","151.238564","","","0"
"203262","Avoca St near Holmes St","-33.932639","151.238038","","","0"
"203263","Avoca St near Anzac Pde","-33.932562","151.237806","","","0"
"203264","Avoca St near Araluen St","-33.929798","151.238347","","","0"
"203265","Avoca St near Sturt St","-33.927093","151.238883","","","0"
"203268","Meeks St near Forsyth St","-33.922892","151.230183","","","0"
"203275","Rainbow St near Avoca St","-33.925646","151.238882","","","0"
"203276","Rainbow St near Paton St","-33.925392","151.237044","","","0"
"203277","Rainbow St near Botany St","-33.925088","151.23485","","","0"
"203278","Rainbow St near Kennedy St","-33.924837","151.233125","","","0"
"203279","Rainbow St near Willis St","-33.924435","151.230154","","","0"
"203280","Rainbow St near Willis St","-33.924308","151.230102","","","0"
"203284","Rainbow St at Kennedy St","-33.924609","151.232197","","","0"
"203285","Kingsford Nine Ways, Anzac Pde - Stand A","-33.923444","151.22735","","","0"
"203311","Anzac Pde Stand D at UNSW","-33.917873","151.226343","","","0"
"203315","Anzac Pde opp Ascot St","-33.907711","151.223437","","","0"
"203316","Anzac Pde opp Carlton St","-33.90571","151.223796","","","0"
"203318","Anzac Pde at Abbotford St","-33.904253","151.224071","","","0"
"203319","Anzac Pde at Ascot St","-33.907779","151.223781","","","0"
"203320","Anzac Pde before Todman Ave","-33.909584","151.223533","","","0"
"203322","Day Av near Anzac Pde","-33.917771","151.225865","","","0"
"203323","Day Av near Anzac Pde","-33.917927","151.22572","","","0"
"203324","Anzac Pde after Darling St","-33.911557","151.223393","","","0"
"203326","Day Av near Mooramie Av","-33.91739","151.223084","","","0"
"203327","Anzac Pde at Doncaster Ave","-33.91265","151.224327","","","0"
"203328","Todman Ave after Anzac Pde","-33.910084","151.222723","","","0"
"203329","Our Lady of the Rosary Primary School, Kensington Rd","-33.912188","151.220672","","","0"
"203330","Our Lady of the Sacred Heart College - Stand B","-33.912351","151.220658","","","0"
"203331","Our Lady of the Rosary Primary School, Kensington Rd","-33.912756","151.22059","","","0"
"203332","Todman Ave at Balfour Rd","-33.909719","151.220027","","","0"
"203333","Lenthall St near Milroy Av","-33.909991","151.218349","","","0"
"203337","Alison Rd opp Doncaster Ave","-33.904235","151.226389","","","0"
"203338","Lenthall St near Mc Dougall St","-33.910767","151.216774","","","0"
"203339","Todman Ave at Baker St","-33.906943","151.216894","","","0"
"203340","Todman Ave at Carminya St","-33.905541","151.216108","","","0"
"203341","Todman Ave after South Dowling St","-33.904523","151.215527","","","0"
"203342","Todman Ave opp Carminya St","-33.905419","151.21633","","","0"
"203343","Todman Ave opp Baker St","-33.906835","151.217117","","","0"
"203344","Lenthall St near Virginia St","-33.911595","151.215407","","","0"
"203345","Todman Ave at Balfour St","-33.909503","151.220177","","","0"
"203346","Anzac Pde before Addison St","-33.912791","151.224156","","","0"
"203347","Day Av near Mooramie Av","-33.917524","151.223021","","","0"
"203348","Moore Park Busway after Alison Rd","-33.904052","151.226229","","","0"
"203349","Alison Rd at Tay St","-33.902552","151.223888","","","0"
"203411","Oberon St near Higgs St","-33.925192","151.247668","","","0"
"203412","Oberon St near Mount St","-33.925812","151.250582","","","0"
"203413","Oberon St near Arden St","-33.926633","151.255103","","","0"
"203414","Arden St near Malabar Rd","-33.928403","151.255237","","","0"
"203415","Malabar Rd near Napper St","-33.931628","151.256465","","","0"
"203416","Malabar Rd near Denning St","-33.933604","151.258103","","","0"
"203417","Malabar Rd near Liguria St","-33.935155","151.258032","","","0"
"203418","Malabar Rd opp Mermaid Av","-33.936979","151.257611","","","0"
"203419","Malabar Rd opp Liguria St","-33.93515","151.257841","","","0"
"203420","Malabar Rd near Nymboida St","-33.933481","151.257842","","","0"
"203421","Malabar Rd near Moverly Rd","-33.931375","151.256013","","","0"
"203422","Arden St near Malabar Rd","-33.928335","151.255075","","","0"
"203423","Oberon St near Arden St","-33.926771","151.25511","","","0"
"203424","Oberon St near Mount St","-33.92604","151.251036","","","0"
"203425","Oberon St near Hendy St","-33.925528","151.248662","","","0"
"203426","Bundock St near Hendy St","-33.928125","151.248146","","","0"
"203427","Elphinstone Rd near Uralla Pl","-33.928594","151.250546","","","0"
"203428","Elphinstone Rd near Yamba Pl","-33.929842","151.252102","","","0"
"203429","Elphinstone Rd near Iluka Pl","-33.930171","151.25281","","","0"
"203430","Elphinstone Rd near Moverly Rd","-33.931779","151.253765","","","0"
"203432","Moverley Rd near Malabar Rd","-33.931328","151.255681","","","0"
"203433","Moverly Rd near South Coogee Primary","-33.933164","151.253537","","","0"
"203434","Moverly Rd near Bryne Av","-33.93552","151.253016","","","0"
"203435","Moverly Rd near Henning Av","-33.936221","151.248647","","","0"
"203436","Moverly Rd near Henning Av","-33.936072","151.248494","","","0"
"203437","Moverly Rd near Endeavour House","-33.935033","151.252999","","","0"
"203438","Moverly Rd opp South Coogee Primary","-33.933813","151.253251","","","0"
"203439","Elphinstone Rd near Jacaranda Pl","-33.931645","151.253631","","","0"
"203440","Elphinstone Rd opp Iluka Pl","-33.930422","151.253159","","","0"
"203441","Elphinstone Rd near Wauhope Cr","-33.929772","151.251738","","","0"
"203442","Elphinstone Rd opp Uralla Pl","-33.928902","151.250694","","","0"
"203443","Bundock St near HendySt","-33.928231","151.247995","","","0"
"203444","Clovelly Rd near Arden St","-33.912283","151.258818","","","0"
"203445","Clovelly Rd near Dans Av","-33.911902","151.256416","","","0"
"203446","Clovelly Rd near Mount St","-33.911631","151.254533","","","0"
"203447","Carrington Rd opp Glebe St","-33.911742","151.249916","","","0"
"203448","Carrington Rd near Alison Rd","-33.914219","151.249483","","","0"
"203449","Carrington Rd near Bream St","-33.916616","151.248973","","","0"
"203450","Carrington Rd near Coogee Bay Rd","-33.919367","151.248375","","","0"
"203451","Byron St near Coogee Bay Rd","-33.920206","151.250333","","","0"
"203452","Coogee Bay Rd near St Brigids","-33.920179","151.252859","","","0"
"203453","Coogee Bay Rd near Byron St","-33.919881","151.249835","","","0"
"203454","Brook St near Dolphin St","-33.919055","151.254617","","","0"
"203455","Bream St near Mount St","-33.917384","151.252912","","","0"
"203456","Bream St near Brook St","-33.91764","151.25463","","","0"
"203457","Arden St near Dolphin St","-33.918628","151.257347","","","0"
"203458","Bream St near Brook St","-33.917766","151.25461","","","0"
"203459","Bream St near Mount St","-33.917485","151.25274","","","0"
"203460","Bream St near Carrington Rd","-33.916936","151.249114","","","0"
"203461","Carr St near Carrington Rd","-33.921531","151.248243","","","0"
"203462","Carr St near Byron St","-33.921853","151.250441","","","0"
"203466","Carr St near Havelock Av","-33.922076","151.251934","","","0"
"203467","Havelock Av near Asher St","-33.924093","151.255155","","","0"
"203468","Arden St near Carr St","-33.922999","151.256254","","","0"
"203469","Arden St near Coogee Bay Rd","-33.921139","151.256662","","","0"
"203470","Arden St near Dolphin St","-33.919233","151.257063","","","0"
"203471","Arden St near Coogee Beach","-33.920514","151.256972","","","0"
"203473","Arden St near Carr St","-33.922641","151.256512","","","0"
"203474","Havelock Av opp Asher St","-33.924233","151.255123","","","0"
"203475","Carr St near Mount St","-33.922228","151.252035","","","0"
"203476","Carr St near Byron St","-33.921978","151.250317","","","0"
"203477","Carr St near Dudley St","-33.921642","151.248031","","","0"
"203478","Arden St near Alison Rd","-33.915493","151.257998","","","0"
"203479","Arden St near Dudley St","-33.925513","151.255863","","","0"
"203480","Arden St opp Neptune St","-33.925945","151.255604","","","0"
"203481","Arden St near Alison Rd","-33.91463","151.258024","","","0"
"203482","Coogee Bay Rd near Melody St","-33.91967","151.249375","","","0"
"203511","Bunnerong Rd opp Southpoint Shops","-33.950902","151.231649","","","0"
"203512","Bunnerong Rd near Jersey Rd","-33.953514","151.230722","","","0"
"203513","Westfield Eastgardens Lower Level","-33.945227","151.226256","","","0"
"203514","Chicago Ave after Beauchamp Rd","-33.952312","151.244202","","","0"
"203515","Bunnerong Rd near Heffron Rd","-33.940842","151.227898","","","0"
"203516","Bunnerong Rd near Boyce Rd","-33.93874","151.228932","","","0"
"203517","Bunnerong Rd near Wark Av","-33.936965","151.229643","","","0"
"203518","Bunnerong Rd near Keysor Rd","-33.93577","151.230113","","","0"
"203519","Bunnerong Rd opp Snape St","-33.934092","151.230295","","","0"
"203520","Bunnerong Rd near Prince Edward Cr","-33.932358","151.229903","","","0"
"203521","Bunnerong Rd near Storey St","-33.935755","151.230341","","","0"
"203522","Bunnerong Rd near Mason St","-33.937899","151.229505","","","0"
"203523","Bunnerong Rd near Maroubra Rd","-33.939549","151.228791","","","0"
"203524","Bunnerong Rd near Kingsford St","-33.941232","151.228053","","","0"
"203525","Westfield Eastgardens, Bunnerong Rd","-33.945087","151.226502","","","0"
"203526","Bunnerong Rd near Fitzgerald Av","-33.946963","151.228978","","","0"
"203527","Walsh Av near Donovan Av","-33.946681","151.231204","","","0"
"203528","Donovan Av near Wild St","-33.946058","151.233728","","","0"
"203529","Donovan Av near Paine St","-33.945784","151.236084","","","0"
"203530","Paine St near Chichester St","-33.943799","151.235705","","","0"
"203531","Paine St near Walsh Av","-33.942895","151.235256","","","0"
"203532","Paine St near Walsh Av","-33.942834","151.235366","","","0"
"203533","Donovan Av near Paine St","-33.945937","151.235642","","","0"
"203534","Donovan Av near Wild St","-33.946167","151.233732","","","0"
"203535","Walsh Av near Fitzgerald Av","-33.947047","151.23133","","","0"
"203536","Westfield Dr before Banks Ave","-33.943715","151.223316","","","0"
"203537","Heffron Rd near Banks Av","-33.939458","151.223185","","","0"
"203538","Heffron Rd near Page St","-33.938084","151.219504","","","0"
"203539","Page St near Cowper Av","-33.939211","151.217384","","","0"
"203540","Page St near Wentworth Av","-33.941111","151.214849","","","0"
"203541","Page St near Holloway St","-33.942133","151.213144","","","0"
"203542","Page St near Dudley St","-33.944041","151.210145","","","0"
"203543","Page St near Dudley St","-33.943794","151.21027","","","0"
"203544","Page St near Holloway St","-33.942342","151.212457","","","0"
"203545","Page St near Wentworth Av","-33.940908","151.214859","","","0"
"203546","Page St near Cowper Av","-33.939403","151.216947","","","0"
"203547","Heffron Rd near Page St","-33.937951","151.219616","","","0"
"203548","Heffron Rd near Banks Av","-33.939288","151.223234","","","0"
"203549","Heffron Rd after Kenny Rd","-33.93975","151.226441","","","0"
"203552","Wentworth Av at Bay St","-33.939776","151.214529","","","0"
"203553","Wentworth Av after Bay St","-33.939835","151.214895","","","0"
"203554","Wentworth Av near Baker St","-33.942556","151.21761","","","0"
"203555","Maroubra Junction Public School, Anzac Pde","-33.936678","151.238503","","","0"
"203556","Anzac Pde near Alma Rd","-33.939054","151.239055","","","0"
"203557","Anzac Pde near Green St","-33.940675","151.239433","","","0"
"203558","Anzac Pde near Maroubra Rd","-33.942165","151.239779","","","0"
"203559","Anzac Pde near Byng St","-33.94452","151.240323","","","0"
"203560","Maroubra Beach Set Down Only","-33.947618","151.255113","","","0"
"203561","Anzac Pde at Fitzgerald Ave","-33.946412","151.240795","","","0"
"203562","Anzac Pde near Minneapolis Cr","-33.948673","151.241258","","","0"
"203563","Anzac Pde opp Murray St","-33.950881","151.241769","","","0"
"203564","Anzac Pde opp Memorial Reserve","-33.953674","151.242435","","","0"
"203565","Anzac Pde near St Spyridon Maroubra","-33.954664","151.242906","","","0"
"203566","Anzac Pde opp Truscott Av","-33.956766","151.244852","","","0"
"203567","Beauchamp Rd opp Memorial Reserve","-33.953008","151.241317","","","0"
"203568","Anzac Pde at Murray St","-33.950571","151.241132","","","0"
